     2.11           OBSERVATION DATA    G (GPS)             RINEX VERSION / TYPE
GPP.DLL V3.1.30.1                       15 - APR - 19 15:17 PGM / RUN BY / DATE 
DR_L                                                        MARKER NAME         
                                                            MARKER NUMBER       
                                                            OBSERVER / AGENCY   
                    ASHTECH UZ-12       0A12                REC # / TYPE / VERS 
                                                            ANT # / TYPE        
  1049966.7414 -4801866.2446  4051140.6826                  APPROX POSITION XYZ 
        1.4000       -0.0000       -0.0000                  ANTENNA: DELTA H/E/N
     1     1                                                WAVELENGTH FACT L1/2
     9    L1    L2    C1    P1    P2    D1    D2    S1    S2# / TYPES OF OBSERV 
    10.000                                                  INTERVAL            
  2019     4     7    18    23   30.0000000     GPS         TIME OF FIRST OBS   
  2019     4     7    18    50   40.0000000     GPS         TIME OF LAST OBS    
    13                                                      LEAP SECONDS        
    12                                                      # OF SATELLITES     
   G01    24    24    24    24    24    24    24    24    24PRN / # OF OBS      
   G07   164   164   164   164   164   164   164   164   164PRN / # OF OBS      
   G08   164   164   164   164   164   164   164   164   164PRN / # OF OBS      
   G09   164   164   164   164   164   164   164   164   164PRN / # OF OBS      
   G11   164   164   164   164   164   164   164   164   164PRN / # OF OBS      
   G16   164   164   164   164   164   164   164   164   164PRN / # OF OBS      
   G18   161   158   161   158   158   161   158   161   158PRN / # OF OBS      
   G23   164   164   164   164   164   164   164   164   164PRN / # OF OBS      
   G26     2     2     2     2     2     2     2     2     2PRN / # OF OBS      
   G27   164   164   164   164   164   164   164   164   164PRN / # OF OBS      
   G28   151   151   151   151   151   151   151   151   151PRN / # OF OBS      
   G30   164   164   164   164   164   164   164   164   164PRN / # OF OBS      
                                                            END OF HEADER       
 19  4  7 18 23 30.0000000  0 10G23G26G16G07G08G09G30G11G28G27
  24280434.69727  18911484.75066  22762574.326    22762573.449    22762575.922  
     -3146.815       -2452.064          45.000          40.000  
  -1049086.28626   -889253.14565  25259493.448    25259492.361    25259500.936  
     -2871.910       -2237.852          41.000          34.000  
  24199313.21827  18847894.09166  22911505.014    22911503.872    22911507.152  
     -2742.383       -2136.922          46.000          40.000  
  23591702.12028  18394514.66667  21085896.281    21085895.956    21085898.687  
      2040.411        1589.931          53.000          46.000  
  23805348.89528  18551650.80867  20253234.362    20253233.067    20253238.338  
       371.448         289.440          52.000          46.000  
  24100844.82627  18775737.40067  21644782.090    21644781.354    21644787.450  
     -1828.443       -1424.761          47.000          43.000  
  23478041.70627  18303152.14166  23387211.991    23387211.190    23387216.952  
      3157.412        2460.321          45.000          40.000  
  23429977.58327  18263208.43566  23673186.757    23673186.263    23673190.027  
      3590.127        2797.502          43.000          38.000  
  -1605013.79627  -1246470.36766  24943788.865    24943787.591    24943792.860  
      2423.098        1888.128          42.000          37.000  
  24116744.63828  18787140.55267  21000631.602    21000630.882    21000636.108  
     -1940.179       -1511.828          52.000          47.000  
 19  4  7 18 23 40.0000000  0 10G23G26G16G07G08G09G30G11G28G27
  24311917.76727  18936016.99466  22768565.432    22768564.525    22768566.939  
     -3150.478       -2454.918          45.000          39.000  
  -1020368.36727   -866875.53465  25264958.216    25264956.982    25264965.574  
     -2872.506       -2238.316          42.000          34.000  
  24226742.30827  18869267.40866  22916724.651    22916723.431    22916726.772  
     -2743.898       -2138.102          45.000          40.000  
  23571315.44228  18378628.94967  21082016.858    21082016.471    21082019.253  
      2036.273        1586.706          53.000          46.000  
  23801666.22828  18548781.19967  20252533.567    20252532.256    20252537.550  
       364.329         283.893          52.000          46.000  
  24119158.83527  18790008.05767  21648267.192    21648266.401    21648272.456  
     -1834.908       -1429.798          47.000          43.000  
  23446472.37027  18278552.66466  23381204.571    23381203.773    23381209.534  
      3155.414        2458.764          45.000          40.000  
  23394081.01427  18235237.08266  23666356.004    23666355.346    23666359.119  
      3588.550        2796.273          43.000          38.000  
  -1629236.89326  -1265345.48866  24939179.488    24939178.070    24939183.326  
      2420.864        1886.388          39.000          37.000  
  24136174.44428  18802280.66467  21004328.984    21004328.241    21004333.493  
     -1946.506       -1516.758          52.000          47.000  
 19  4  7 18 23 50.0000000  0  9G23G16G07G08G09G30G11G28G27
  24343428.78227  18960571.02366  22774561.724    22774560.871    22774563.166  
     -3152.271       -2456.315          44.000          39.000  
  24254180.24327  18890647.59866  22921945.897    22921944.682    22921948.048  
     -2743.968       -2138.157          46.000          40.000  
  23550964.27228  18362770.90367  21078144.178    21078143.765    21078146.570  
      2033.566        1584.597          53.000          46.000  
  23798048.91928  18545962.52167  20251845.243    20251843.890    20251849.217  
       358.877         279.644          52.000          46.000  
  24137528.84027  18804322.33167  21651762.863    21651762.110    21651768.150  
     -1839.567       -1433.429          47.000          43.000  
  23414915.28027  18253962.72766  23375199.526    23375198.671    23375204.473  
      3155.545        2458.866          45.000          40.000  
  23358196.90027  18207275.44766  23659527.404    23659526.807    23659530.531  
      3588.154        2795.964          42.000          38.000  
  -1653447.66726  -1284210.98866  24934571.990    24934570.836    24934576.257  
      2421.088        1886.562          39.000          37.000  
  24155659.20928  18817463.59367  21008036.841    21008036.084    21008041.324  
     -1950.849       -1520.142          53.000          47.000  
 19  4  7 18 24  0.0000000  0 10G23G18G16G07G08G09G30G11G28G27
  24374964.27127  18985144.12566  22780562.783    22780561.914    22780564.140  
     -3155.477       -2458.813          45.000          39.000  
  -1388217.66737         0.00031  24018840.129           0.000           0.000  
      3499.080        2726.556          42.000           0.000  
  24281623.46427  18912031.92766  22927168.258    22927166.962    22927170.345  
     -2745.162       -2139.087          46.000          40.000  
  23530645.22228  18346937.87767  21074277.592    21074277.189    21074279.980  
      2029.769        1581.638          53.000          46.000  
  23794493.60228  18543192.14467  20251168.736    20251167.319    20251172.670  
       351.809         274.137          52.000          46.000  
  24155951.17628  18818677.39667  21655268.615    21655267.787    21655273.777  
     -1845.353       -1437.937          48.000          44.000  
  23383367.05427  18229379.71066  23369196.081    23369195.227    23369201.058  
      3153.615        2457.362          46.000          40.000  
  23322321.86927  18179320.90366  23652700.509    23652700.025    23652703.676  
      3586.427        2794.618          42.000          38.000  
  -1677649.60326  -1303069.62466  24929966.520    24929965.408    24929970.817  
      2419.502        1885.326          39.000          36.000  
  24175195.31228  18832686.52967  21011754.491    21011753.664    21011758.933  
     -1956.705       -1524.705          52.000          47.000  
 19  4  7 18 24 10.0000000  0 10G23G18G16G07G08G09G30G11G28G27
  24406524.83727  19009736.75466  22786568.590    22786567.661    22786569.836  
     -3157.718       -2460.559          45.000          39.000  
  -1423213.01927         0.00031  24012182.952           0.000           0.000  
      3498.998        2726.492          44.000           0.000  
  24309072.77627  18933420.97766  22932391.634    22932390.363    22932393.809  
     -2745.565       -2139.401          45.000          40.000  
  23510359.08628  18331130.49767  21070417.331    21070416.875    21070419.671  
      2026.538        1579.121          53.000          46.000  
  23791001.05228  18540470.67567  20250504.145    20250502.694    20250508.076  
       345.776         269.436          52.000          46.000  
  24174426.62027  18833073.83967  21658784.369    21658783.552    21658789.544  
     -1850.354       -1441.834          47.000          44.000  
  23351828.46827  18204804.20166  23363194.462    23363193.594    23363199.522  
      3153.259        2457.085          44.000          40.000  
  23286456.76727  18151374.08766  23645875.644    23645875.141    23645878.742  
      3585.642        2794.007          42.000          37.000  
  -1701842.02626  -1321920.83966  24925362.824    24925361.696    24925367.176  
      2418.055        1884.199          38.000          36.000  
  24194783.46228  18847950.02167  21015481.992    21015481.161    21015486.451  
     -1961.580       -1528.504          52.000          47.000  
 19  4  7 18 24 20.0000000  0 10G23G18G16G07G08G09G30G11G28G27
  24438114.14027  19034351.78866  22792579.767    22792578.944    22792581.083  
     -3160.643       -2462.839          44.000          39.000  
  -1458200.26227         0.00031  24005525.639           0.000           0.000  
      3497.882        2725.622          42.000           0.000  
  24336531.95827  18954817.73566  22937616.898    22937615.663    22937619.082  
     -2746.640       -2140.239          45.000          40.000  
  23490109.84228  18315351.87167  21066564.040    21066563.551    21066566.374  
      2022.788        1576.198          53.000          46.000  
  23787575.16728  18537801.15767  20249852.211    20249850.742    20249856.163  
       339.178         264.295          52.000          46.000  
  24192958.95128  18847514.60867  21662310.942    21662310.167    21662316.104  
     -1856.337       -1446.496          48.000          44.000  
  23320303.58227  18180239.37066  23357195.522    23357194.561    23357200.537  
      3151.466        2455.688          45.000          40.000  
  23250605.56227  18123438.09666  23639053.435    23639052.839    23639056.511  
      3584.559        2793.163          43.000          38.000  
  -1726020.88326  -1340761.49266  24920761.739    24920760.652    24920766.160  
      2417.184        1883.520          39.000          36.000  
  24214427.48628  18863257.05467  21019220.117    21019219.293    21019224.588  
     -1967.442       -1533.072          52.000          47.000  
 19  4  7 18 24 30.0000000  0 10G23G18G16G07G08G09G30G11G28G27
  24469725.84327  19058984.26966  22798595.191    22798594.331    22798596.609  
     -3162.148       -2464.011          43.000          39.000  
  -1493185.61127  -1122084.85176  23998867.985    23998866.985    23998875.092  
      3498.308        2725.954          43.000          38.000  
  24363994.63327  18976217.21766  22942842.812    22942841.608    22942845.070  
     -2746.306       -2139.979          45.000          40.000  
  23469891.19928  18299597.08667  21062716.568    21062716.049    21062718.900  
      2020.291        1574.253          53.000          46.000  
  23784209.37228  18535178.46067  20249211.700    20249210.236    20249215.673  
       333.709         260.033          52.000          46.000  
  24211541.65828  18861994.63967  21665847.218    21665846.348    21665852.268  
     -1860.624       -1449.837          48.000          44.000  
  23288785.95127  18155680.18766  23351197.889    23351196.954    23351202.861  
      3151.614        2455.803          45.000          40.000  
  23214762.01726  18095508.08066  23632232.635    23632232.012    23632235.714  
      3584.030        2792.751          41.000          38.000  
  -1750192.74436  -1359596.67576  24916161.831    24916160.803    24916166.385  
      2416.672        1883.121          37.000          36.000  
  24234120.84728  18878602.52567  21022967.637    21022966.820    21022972.110  
     -1971.520       -1536.249          52.000          47.000  
 19  4  7 18 24 40.0000000  0 10G23G18G16G07G08G09G30G11G28G27
  24501362.64627  19083636.30366  22804615.580    22804614.735    22804616.978  
     -3164.695       -2465.996          46.000          39.000  
  -1528165.97227  -1149342.27166  23992211.575    23992210.633    23992218.357  
      3497.951        2725.676          42.000          38.000  
  24391463.75527  18997621.70966  22948070.099    22948068.864    22948072.272  
     -2746.993       -2140.514          46.000          40.000  
  23449706.18828  18283868.50867  21058875.507    21058874.953    21058877.813  
      2017.184        1571.832          53.000          46.000  
  23780906.76928  18532605.00567  20248583.250    20248581.758    20248587.208  
       327.229         254.984          51.000          46.000  
  24230177.65327  18876516.17567  21669393.491    21669392.671    21669398.589  
     -1866.029       -1454.049          47.000          44.000  
  23257278.69927  18131129.07466  23345202.251    23345201.336    23345207.256  
      3150.159        2454.669          45.000          41.000  
  23178929.17527  18067586.40766  23625413.912    23625413.224    23625416.989  
      3583.159        2792.072          42.000          38.000  
  -1774354.58826  -1378424.01265  24911563.936    24911562.939    24911568.559  
      2415.879        1882.503          36.000          35.000  
  24253866.40928  18893988.67267  21026725.055    21026724.260    21026729.578  
     -1977.135       -1540.625          52.000          47.000  
 19  4  7 18 24 50.0000000  0 10G23G18G16G07G08G09G30G11G28G27
  24533024.53827  19108307.91366  22810640.951    22810639.886    22810641.845  
     -3167.471       -2468.159          45.000          39.000  
  -1563141.23927  -1176595.69566  23985556.107    23985555.078    23985562.064  
      3497.434        2725.273          43.000          38.000  
  24418939.40327  19019031.30266  22953298.588    22953297.266    22953300.704  
     -2747.523       -2140.927          45.000          40.000  
  23429555.07428  18268166.34767  21055040.830    21055040.311    21055043.200  
      2013.276        1568.786          52.000          46.000  
  23777667.48028  18530080.88967  20247966.843    20247965.338    20247970.795  
       320.696         249.893          52.000          46.000  
  24248866.91427  18891079.24567  21672949.974    21672949.118    21672955.010  
     -1871.694       -1458.463          47.000          43.000  
  23225781.90027  18106586.13366  23339208.610    23339207.634    23339213.631  
      3149.179        2453.906          45.000          41.000  
  23143107.28327  18039673.28066  23618597.287    23618596.367    23618600.217  
      3581.689        2790.926          42.000          38.000  
  -1798506.28126  -1397243.47366  24906968.149    24906967.119    24906972.539  
      2414.232        1881.220          37.000          36.000  
  24273664.22728  18909415.54167  21030492.495    21030491.666    21030496.992  
     -1982.475       -1544.786          53.000          47.000  
 19  4  7 18 25  0.0000000  0 10G23G18G16G07G08G09G30G11G28G27
  24564713.79427  19133000.85466  22816670.972    22816670.006    22816672.108  
     -3170.120       -2470.223          43.000          39.000  
  -1598108.85927  -1203843.18566  23978902.219    23978901.343    23978907.451  
      3496.690        2724.694          44.000          38.000  
  24446423.93327  19040447.81066  22958528.630    22958527.384    22958530.868  
     -2748.565       -2141.739          45.000          40.000  
  23409440.13728  18252492.37267  21051213.060    21051212.554    21051215.440  
      2010.005        1566.238          53.000          46.000  
  23774493.57628  18527607.71867  20247362.901    20247361.354    20247366.843  
       314.386         244.976          52.000          46.000  
  24267611.66628  18905685.52367  21676516.960    21676516.150    21676522.016  
     -1876.890       -1462.512          48.000          44.000  
  23194297.99727  18082053.23666  23333217.398    23333216.423    23333222.457  
      3147.783        2452.818          44.000          41.000  
  23107298.66827  18011770.48366  23611783.073    23611782.153    23611786.050  
      3580.241        2789.798          42.000          38.000  
  -1822645.64835  -1416053.32876  24902374.439    24902373.374    24902378.887  
      2413.084        1880.325          35.000          36.000  
  24293516.45828  18924884.81367  21034270.276    21034269.413    21034274.767  
     -1987.906       -1549.018          53.000          47.000  
 19  4  7 18 25 10.0000000  0  9G23G18G16G07G08G09G30G11G27
  24596426.45927  19157711.99866  22822705.591    22822704.792    22822707.046  
     -3172.511       -2472.086          44.000          39.000  
  -1633072.67027  -1231087.67766  23972248.868    23972247.889    23972254.019  
      3496.119        2724.249          44.000          39.000  
  24473913.21027  19061868.01966  22963759.710    22963758.368    22963761.878  
     -2749.605       -2142.549          44.000          40.000  
  23389357.55428  18236843.60967  21047391.514    21047390.939    21047393.861  
      2006.459        1563.475          53.000          46.000  
  23771381.31528  18525182.57767  20246770.645    20246769.093    20246774.618  
       308.038         240.030          52.000          46.000  
  24286407.93327  18920331.97067  21680093.870    21680092.954    21680098.811  
     -1882.139       -1466.602          47.000          43.000  
  23162823.14627  18057527.39766  23327227.898    23327226.994    23327233.009  
      3146.735        2452.001          45.000          41.000  
  23071499.63127  17983875.14566  23604970.683    23604969.804    23604973.672  
      3579.111        2788.918          43.000          38.000  
  24313419.14128  18940393.39567  21038057.650    21038056.764    21038062.131  
     -1992.967       -1552.961          52.000          47.000  
 19  4  7 18 25 20.0000000  0 10G23G18G16G07G08G09G30G11G28G27
  24628165.83527  19182443.95866  22828745.615    22828744.562    22828746.863  
     -3175.687       -2474.561          44.000          39.000  
  -1668028.94727  -1258326.30966  23965597.300    23965595.978    23965601.868  
      3494.749        2723.181          44.000          39.000  
  24501410.80827  19083294.72066  22968992.298    22968991.013    22968994.555  
     -2750.498       -2143.245          46.000          40.000  
  23369310.94228  18221222.87667  21043576.796    21043576.189    21043579.098  
      2002.334        1560.260          53.000          46.000  
  23768334.13128  18522808.14867  20246190.808    20246189.234    20246194.761  
       300.963         234.517          52.000          46.000  
  24305259.18727  18935021.24967  21683681.121    21683680.236    21683686.080  
     -1888.203       -1471.327          47.000          43.000  
  23131360.93827  18033011.39466  23321240.914    23321239.914    23321245.911  
      3145.182        2450.791          44.000          41.000  
  23035713.72727  17955990.03266  23598160.951    23598160.076    23598163.870  
      3577.567        2787.715          43.000          38.000  
  -1870895.13635  -1453650.29275  24893192.936    24893191.714    24893197.340  
      2410.537        1878.341          35.000          35.000  
  24333375.73628  18955943.97967  21041855.263    21041854.374    21041859.758  
     -1998.821       -1557.523          52.000          47.000  
 19  4  7 18 25 30.0000000  0 10G23G18G16G07G08G09G30G11G28G27
  24659928.79127  19207194.29866  22834789.880    22834788.877    22834791.154  
     -3177.380       -2475.881          45.000          40.000  
  -1702980.77127  -1285561.47866  23958945.904    23958944.814    23958950.544  
      3494.955        2723.342          43.000          39.000  
  24528913.64827  19104725.48466  22974225.983    22974224.626    22974228.182  
     -2750.685       -2143.391          46.000          40.000  
  23349297.34828  18205627.86867  21039768.329    21039767.725    21039770.644  
      1999.816        1558.298          53.000          46.000  
  23765349.01928  18520482.08967  20245622.758    20245621.169    20245626.738  
       295.460         230.229          52.000          46.000  
  24324162.25827  18949750.91167  21687278.229    21687277.352    21687283.225  
     -1892.889       -1474.978          47.000          43.000  
  23099908.37027  18008502.92066  23315255.572    23315254.626    23315260.720  
      3144.908        2450.578          44.000          41.000  
  22999938.01727  17928112.86266  23591352.949    23591352.185    23591355.960  
      3576.695        2787.035          42.000          38.000  
  -1895004.85935  -1472437.05675  24888604.972    24888603.712    24888608.877  
      2411.397        1879.011          35.000          35.000  
  24353383.06428  18971534.10167  21045662.518    21045661.631    21045667.042  
     -2003.436       -1561.119          52.000          47.000  
 19  4  7 18 25 40.0000000  0 10G23G18G16G07G08G09G30G11G28G27
  24691717.75727  19231964.91666  22840839.053    22840838.086    22840840.304  
     -3179.546       -2477.568          44.000          39.000  
  -1737925.57827  -1312791.16566  23952296.045    23952295.162    23952300.786  
      3494.946        2723.334          44.000          39.000  
  24556423.99227  19126162.10766  22979461.043    22979459.672    22979463.236  
     -2750.951       -2143.598          46.000          40.000  
  23329319.28828  18190060.55067  21035966.674    21035966.012    21035968.952  
      1996.960        1556.073          53.000          45.000  
  23762428.24028  18518206.15667  20245066.957    20245065.366    20245070.942  
       289.634         225.689          52.000          46.000  
  24343119.39227  18964522.69067  21690885.739    21690884.788    21690890.637  
     -1897.665       -1478.700          47.000          43.000  
  23068467.92227  17984003.87866  23309272.694    23309271.758    23309277.787  
      3144.002        2449.872          45.000          41.000  
  22964175.03427  17900245.62066  23584547.368    23584546.730    23584550.646  
      3576.174        2786.629          43.000          38.000  
  -1919103.17136  -1491214.91475  24884019.130    24884018.026    24884023.483  
      2409.593        1877.605          36.000          35.000  
  24373443.40228  18987165.53667  21049479.866    21049478.984    21049484.415  
     -2008.163       -1564.802          52.000          47.000  
 19  4  7 18 25 50.0000000  0  9G23G18G16G07G08G09G30G11G27
  24723528.55227  19256752.54666  22846892.400    22846891.486    22846893.698  
     -3182.318       -2479.728          45.000          39.000  
  -1772867.05827  -1340018.26166  23945646.839    23945645.831    23945651.421  
      3493.703        2722.366          42.000          38.000  
  24583938.08527  19147601.65766  22984696.841    22984695.415    22984698.947  
     -2751.816       -2144.272          45.000          40.000  
  23309373.03328  18174518.01567  21032171.044    21032170.369    21032173.298  
      1992.773        1552.810          53.000          45.000  
  23759568.16328  18515977.53067  20244522.735    20244521.100    20244526.702  
       282.858         220.409          52.000          46.000  
  24362126.81827  18979333.66867  21694502.690    21694501.766    21694507.639  
     -1903.592       -1483.318          47.000          43.000  
  23037035.83327  17959511.35866  23303291.409    23303290.382    23303296.410  
      3142.734        2448.884          44.000          41.000  
  22928420.99727  17872385.33566  23577743.703    23577742.944    23577746.780  
      3574.710        2785.488          42.000          38.000  
  24393552.90928  19002835.28167  21053306.594    21053305.691    21053311.137  
     -2013.648       -1569.076          52.000          47.000  
 19  4  7 18 26  0.0000000  0  9G23G18G16G07G08G09G30G11G27
  24755366.39127  19281561.23466  22852951.098    22852950.116    22852952.300  
     -3185.541       -2482.240          46.000          39.000  
  -1807799.79127  -1367238.51566  23938999.116    23938998.311    23939004.027  
      3492.534        2721.455          43.000          39.000  
  24611461.18427  19169048.21066  22989934.274    22989932.899    22989936.452  
     -2752.892       -2145.111          46.000          40.000  
  23289463.90628  18159004.41467  21028382.455    21028381.791    21028384.717  
      1988.763        1549.685          53.000          45.000  
  23756773.89228  18513800.18067  20243991.013    20243989.375    20243994.990  
       275.858         214.954          52.000          46.000  
  24381189.63327  18994187.81867  21698130.202    21698129.317    21698135.185  
     -1909.536       -1487.950          47.000          43.000  
  23005617.51427  17935029.57666  23297312.608    23297311.657    23297317.724  
      3140.938        2447.484          45.000          40.000  
  22892681.37026  17844536.29766  23570942.554    23570941.862    23570945.727  
      3572.998        2784.154          41.000          38.000  
  24413716.74528  19018547.35467  21057143.642    21057142.745    21057148.206  
     -2019.369       -1573.534          52.000          47.000  
 19  4  7 18 26 10.0000000  0  9G23G18G16G07G08G09G30G11G27
  24787227.83427  19306388.32466  22859014.152    22859013.120    22859015.270  
     -3187.912       -2484.087          44.000          39.000  
  -1842727.03127  -1394454.51166  23932352.693    23932351.806    23932357.531  
      3491.789        2720.875          42.000          39.000  
  24638989.84627  19190499.11566  22995172.773    22995171.404    22995175.033  
     -2753.677       -2145.722          45.000          40.000  
  23269588.53028  18143517.11167  21024600.306    21024599.607    21024602.561  
      1985.243        1546.943          53.000          45.000  
  23754042.15128  18511671.55067  20243471.187    20243469.538    20243475.166  
       269.524         210.019          52.000          46.000  
  24400304.37827  19009082.41567  21701767.592    21701766.674    21701772.632  
     -1914.564       -1491.868          47.000          43.000  
  22974209.57427  17910555.86366  23291335.877    23291334.923    23291341.042  
      3139.466        2446.337          45.000          41.000  
  22856952.80127  17816695.89266  23564143.505    23564142.805    23564146.895  
      3571.658        2783.110          42.000          38.000  
  24433931.40528  19034299.04267  21060990.375    21060989.455    21060994.937  
     -2024.522       -1577.550          52.000          46.000  
 19  4  7 18 26 20.0000000  0  9G23G18G16G07G08G09G30G11G27
  24819115.09627  19331235.51166  22865082.026    22865081.134    22865083.311  
     -3189.477       -2485.307          45.000          39.000  
  -1877646.27227  -1421664.28966  23925707.621    23925706.904    23925712.629  
      3491.572        2720.705          42.000          38.000  
  24666526.44927  19211956.19166  23000412.781    23000411.435    23000415.110  
     -2753.779       -2145.802          45.000          40.000  
  23249749.40328  18128058.06167  21020825.027    21020824.335    21020827.314  
      1982.638        1544.913          52.000          45.000  
  23751375.15528  18509593.37267  20242963.668    20242962.029    20242967.664  
       263.723         205.498          52.000          46.000  
  24419473.34227  19024019.26267  21705415.391    21705414.403    21705420.349  
     -1919.295       -1495.555          47.000          43.000  
  22942814.48127  17886092.16666  23285361.608    23285360.626    23285366.771  
      3139.068        2446.027          45.000          41.000  
  22821237.69827  17788865.96066  23557347.196    23557346.434    23557350.502  
      3571.320        2782.847          42.000          38.000  
  24454199.20828  19050092.12467  21064847.247    21064846.290    21064851.773  
     -2029.302       -1581.274          52.000          46.000  
 19  4  7 18 26 30.0000000  0  9G23G18G16G07G08G09G30G11G27
  24851022.84327  19356098.68566  22871153.832    22871152.943    22871155.084  
     -3192.477       -2487.644          44.000          39.000  
  -1912562.71227  -1448871.88966  23919063.333    23919062.509    23919068.272  
      3490.808        2720.110          42.000          38.000  
  24694065.74127  19233415.36066  23005653.385    23005651.995    23005655.689  
     -2754.416       -2146.298          45.000          40.000  
  23229941.51928  18112623.33967  21017055.748    21017055.012    21017057.986  
      1978.624        1541.785          52.000          45.000  
  23748767.80128  18507561.66967  20242467.485    20242465.859    20242471.512  
       257.403         200.574          52.000          46.000  
  24438691.25627  19038994.24867  21709072.412    21709071.439    21709077.414  
     -1924.745       -1499.801          47.000          43.000  
  22911427.07827  17861634.45566  23279388.805    23279387.852    23279393.976  
      3137.781        2445.024          45.000          41.000  
  22785530.89227  17761042.48966  23550552.508    23550551.727    23550555.720  
      3569.818        2781.676          42.000          38.000  
  24474514.80728  19065922.45767  21068713.141    21068712.240    21068717.703  
     -2034.248       -1585.128          52.000          47.000  
 19  4  7 18 26 40.0000000  0  9G23G18G16G07G08G09G30G11G27
  24882956.66827  19380982.18366  22877230.617    22877229.787    22877231.957  
     -3195.108       -2489.695          44.000          39.000  
  -1947470.48027  -1476072.69166  23912420.538    23912419.706    23912425.493  
      3489.912        2719.412          43.000          38.000  
  24721613.37427  19254881.05166  23010895.588    23010894.138    23010897.823  
     -2755.705       -2147.303          46.000          40.000  
  23210170.48628  18097217.35067  21013293.445    21013292.691    21013295.671  
      1974.789        1538.797          52.000          45.000  
  23746225.67028  18505580.78267  20241983.761    20241982.111    20241987.750  
       250.540         195.226          52.000          46.000  
  24457963.64127  19054011.68867  21712739.786    21712738.828    21712744.848  
     -1930.439       -1504.238          46.000          43.000  
  22880053.10027  17837187.21166  23273418.461    23273417.548    23273423.661  
      3136.286        2443.859          45.000          41.000  
  22749838.34627  17733230.12666  23543760.475    23543759.661    23543763.622  
      3567.641        2779.980          42.000          38.000  
  24494883.77228  19081794.38167  21072589.186    21072588.314    21072593.810  
     -2039.955       -1589.575          52.000          46.000  
 19  4  7 18 26 50.0000000  0  9G23G18G16G07G08G09G30G11G27
  24914913.94327  19405883.93566  22883311.958    22883311.096    22883313.267  
     -3197.387       -2491.470          44.000          39.000  
  -1982371.97127  -1503268.62766  23905778.952    23905778.152    23905783.778  
      3488.834        2718.572          42.000          38.000  
  24749166.86727  19276351.29066  23016138.853    23016137.388    23016141.081  
     -2756.291       -2147.759          45.000          40.000  
  23190433.98028  18081838.25167  21009537.702    21009536.932    21009539.950  
      1971.367        1536.130          52.000          45.000  
  23743746.23328  18503648.75867  20241511.951    20241510.291    20241515.947  
       244.200         190.286          52.000          46.000  
  24477287.97127  19069069.58967  21716417.095    21716416.129    21716422.096  
     -1935.579       -1508.243          47.000          43.000  
  22848690.15227  17812748.56366  23267450.392    23267449.375    23267455.491  
      3135.333        2443.117          46.000          41.000  
  22714157.72427  17705427.05466  23536970.703    23536969.795    23536973.856  
      3566.963        2779.452          42.000          38.000  
  24515303.57128  19097705.90167  21076474.925    21076474.087    21076479.580  
     -2045.074       -1593.564          52.000          46.000  
 19  4  7 18 27  0.0000000  0  9G23G18G16G07G08G09G30G11G27
  24946896.90327  19430805.70866  22889398.169    22889397.324    22889399.426  
     -3199.416       -2493.051          45.000          39.000  
  -2017264.73927  -1530457.75566  23899138.939    23899138.157    23899143.845  
      3488.762        2718.516          42.000          38.000  
  24776728.38127  19297827.78666  23021383.583    23021382.209    23021385.844  
     -2756.144       -2147.645          45.000          40.000  
  23170734.38728  18066487.91867  21005788.992    21005788.229    21005791.233  
      1968.344        1533.775          52.000          45.000  
  23741331.81428  18501767.39267  20241052.514    20241050.857    20241056.485  
       238.432         185.791          52.000          46.000  
  24496666.38727  19084169.65967  21720104.758    21720103.715    21720109.707  
     -1940.242       -1511.877          47.000          43.000  
  22817340.56927  17788320.31966  23261484.703    23261483.772    23261489.865  
      3134.466        2442.441          45.000          41.000  
  22678491.37227  17677635.11166  23530183.501    23530182.595    23530186.769  
      3565.871        2778.601          42.000          38.000  
  24535776.36028  19113658.72367  21080370.723    21080369.922    21080375.425  
     -2049.858       -1597.292          52.000          47.000  
 19  4  7 18 27 10.0000000  0  9G23G18G16G07G08G09G30G11G27
  24978902.97127  19455745.49066  22895488.773    22895487.908    22895489.947  
     -3201.948       -2495.024          45.000          39.000  
  -2052151.09827  -1557641.88666  23892500.228    23892499.542    23892505.207  
      3487.989        2717.914          42.000          38.000  
  24804295.56327  19319308.69966  23026629.451    23026628.045    23026631.656  
     -2757.305       -2148.549          45.000          40.000  
  23151069.31528  18051164.49467  21002046.869    21002046.070    21002049.090  
      1964.568        1530.832          52.000          45.000  
  23738979.96028  18499934.78067  20240605.001    20240603.319    20240608.962  
       231.821         180.640          52.000          46.000  
  24516096.43227  19099309.93667  21723802.126    21723801.135    21723807.126  
     -1945.695       -1516.126          47.000          43.000  
  22786002.01027  17763900.68366  23255521.030    23255520.216    23255526.375  
      3133.044        2441.333          45.000          41.000  
  22642836.97427  17649852.49166  23523398.663    23523397.718    23523401.993  
      3564.602        2777.612          42.000          38.000  
  24556299.64728  19129650.89167  21084276.248    21084275.389    21084280.887  
     -2055.055       -1601.342          52.000          46.000  
 19  4  7 18 27 20.0000000  0  9G23G18G16G07G08G09G30G11G27
  25010931.45327  19480702.73566  22901583.543    22901582.684    22901584.742  
     -3204.013       -2496.633          44.000          39.000  
  -2087031.60127  -1584821.46566  23885862.802    23885861.883    23885867.577  
      3487.791        2717.759          42.000          38.000  
  24831867.68727  19340793.45366  23031876.316    23031874.849    23031878.534  
     -2757.487       -2148.691          45.000          40.000  
  23131438.23328  18035867.54567  20998311.279    20998310.413    20998313.425  
      1961.314        1528.297          52.000          45.000  
  23736689.93728  18498150.34567  20240169.241    20240167.547    20240173.195  
       225.760         175.917          52.000          46.000  
  24535577.43727  19114489.94367  21727509.215    21727508.237    21727514.246  
     -1950.791       -1520.097          47.000          43.000  
  22754673.98127  17739489.24866  23249559.484    23249558.679    23249564.875  
      3131.944        2440.476          45.000          41.000  
  22607193.99027  17622078.76266  23516615.968    23516615.081    23516619.424  
      3563.492        2776.747          42.000          38.000  
  24576872.75128  19145681.87467  21088191.196    21088190.334    21088195.811  
     -2059.968       -1605.170          52.000          46.000  
 19  4  7 18 27 30.0000000  0  9G23G18G16G07G08G09G30G11G27
  25042983.10527  19505678.04166  22907682.755    22907681.970    22907684.010  
     -3206.882       -2498.869          45.000          39.000  
  -2121905.16027  -1611995.62166  23879226.565    23879225.638    23879231.283  
      3486.460        2716.722          42.000          38.000  
  24859445.68827  19362282.78566  23037124.329    23037122.824    23037126.506  
     -2758.498       -2149.479          45.000          40.000  
  23111842.12928  18020597.85967  20994582.241    20994581.396    20994584.392  
      1957.430        1525.270          52.000          45.000  
  23734462.85428  18496414.96067  20239745.411    20239743.750    20239749.387  
       218.903         170.574          52.000          46.000  
  24555110.19027  19129710.25567  21731226.146    21731225.193    21731231.216  
     -1956.381       -1524.453          47.000          43.000  
  22723357.41627  17715086.73066  23243600.137    23243599.345    23243605.488  
      3130.605        2439.432          45.000          41.000  
  22571563.41427  17594314.69266  23509835.642    23509834.780    23509839.108  
      3561.681        2775.336          42.000          38.000  
  24597496.46528  19161752.29967  21092115.794    21092114.890    21092120.380  
     -2065.427       -1609.424          52.000          46.000  
 19  4  7 18 27 40.0000000  0  9G23G18G16G07G08G09G30G11G27
  25075058.65527  19530671.97566  22913786.719    22913785.692    22913787.780  
     -3208.442       -2500.085          44.000          39.000  
  -2156770.75727  -1639163.58466  23872591.795    23872590.903    23872596.665  
      3486.334        2716.624          43.000          38.000  
  24887030.38027  19383777.35266  23042373.640    23042372.013    23042375.699  
     -2758.420       -2149.418          45.000          40.000  
  23092281.97928  18005356.19267  20990860.052    20990859.201    20990862.232  
      1954.462        1522.957          52.000          45.000  
  23732299.38628  18494729.14167  20239333.715    20239332.072    20239337.695  
       213.452         166.326          52.000          46.000  
  24574695.43127  19144971.48467  21734953.093    21734952.151    21734958.154  
     -1960.968       -1528.027          47.000          43.000  
  22692053.23427  17690693.86166  23237643.150    23237642.368    23237648.490  
      3130.458        2439.318          45.000          41.000  
  22535946.20326  17566561.01966  23503058.012    23503056.986    23503061.364  
      3561.377        2775.099          41.000          38.000  
  24618171.55628  19177862.75367  21096050.092    21096049.246    21096054.721  
     -2069.750       -1612.792          52.000          46.000  
 19  4  7 18 27 50.0000000  0 10G23G18G16G07G08G09G30G11G28G27
  25107156.17527  19555683.02266  22919894.611    22919893.513    22919895.819  
     -3211.710       -2502.631          44.000          39.000  
  -2191630.23627  -1666326.80366  23865958.357    23865957.466    23865963.156  
      3484.664        2715.323          42.000          39.000  
  24914619.85627  19405275.63966  23047623.723    23047622.114    23047625.893  
     -2760.011       -2150.658          46.000          40.000  
  23072755.93828  17990141.09367  20987144.384    20987143.510    20987146.538  
      1949.970        1519.457          52.000          45.000  
  23730197.54728  18493091.34767  20238933.777    20238932.122    20238937.739  
       206.226         160.696          52.000          46.000  
  24594331.17427  19160272.05467  21738689.601    21738688.686    21738694.706  
     -1966.867       -1532.624          47.000          43.000  
  22660759.60527  17666309.22666  23231688.138    23231687.339    23231693.512  
      3128.036        2437.431          45.000          41.000  
  22500340.52126  17538816.34366  23496282.373    23496281.516    23496285.808  
      3559.089        2773.316          41.000          38.000  
  -1362408.73637  -1048535.35876  24824578.914    24824578.347    24824584.494  
      2395.417        1866.559          42.000          38.000  
  24638896.00128  19194011.67067  21099993.856    21099992.995    21099998.473  
     -2075.735       -1617.456          52.000          46.000  
 19  4  7 18 28  0.0000000  0 10G23G18G16G07G08G09G30G11G28G27
  25139278.24927  19580713.16066  22926007.259    22926006.200    22926008.593  
     -3213.133       -2503.740          45.000          39.000  
  -2226480.89427  -1693483.12066  23859326.594    23859325.606    23859331.295  
      3485.097        2715.660          42.000          39.000  
  24942216.80227  19426779.73466  23052875.376    23052873.674    23052877.366  
     -2759.634       -2150.364          46.000          40.000  
  23053266.81828  17974954.76567  20983435.742    20983434.862    20983437.865  
      1947.520        1517.548          52.000          45.000  
  23728160.15528  18491503.77367  20238546.063    20238544.424    20238550.037  
       200.755         156.432          52.000          46.000  
  24614020.06927  19175614.04167  21742436.294    21742435.391    21742441.397  
     -1971.052       -1535.885          47.000          43.000  
  22629479.34127  17641935.01266  23225735.735    23225734.896    23225741.056  
      3127.902        2437.326          46.000          41.000  
  22464749.18726  17511082.86066  23489509.487    23489508.703    23489513.027  
      3559.097        2773.322          41.000          38.000  
  -1386364.72727  -1067202.33566  24820020.144    24820019.947    24820024.863  
      2395.396        1866.542          42.000          38.000  
  24659672.42328  19210201.08567  21103947.494    21103946.616    21103952.100  
     -2079.608       -1620.474          52.000          46.000  
 19  4  7 18 28 10.0000000  0 10G23G18G16G07G08G09G30G11G28G27
  25171422.11727  19605760.31966  22932124.158    22932123.117    22932125.355  
     -3216.171       -2506.107          45.000          39.000  
  -2261324.96227  -1720634.30666  23852695.869    23852694.993    23852700.632  
      3483.545        2714.451          42.000          38.000  
  24969818.54027  19448287.57166  23058127.864    23058126.174    23058129.795  
     -2760.850       -2151.312          46.000          40.000  
  23033812.00828  17959795.17467  20979733.633    20979732.738    20979735.733  
      1943.172        1514.160          52.000          45.000  
  23726184.52028  18489964.31867  20238170.129    20238168.487    20238174.085  
       193.944         151.125          52.000          46.000  
  24633759.38927  19190995.32067  21746192.564    21746191.654    21746197.656  
     -1976.972       -1540.498          47.000          43.000  
  22598209.84127  17617569.17066  23219785.470    23219784.478    23219790.654  
      3125.803        2435.691          45.000          41.000  
  22429169.69126  17483358.60566  23482738.916    23482738.056    23482742.436  
      3556.924        2771.629          41.000          38.000  
  -1410311.80427  -1085862.37266  24815463.189    24815462.874    24815467.548  
      2393.846        1865.335          43.000          38.000  
  24680498.14828  19226428.92067  21107910.497    21107909.627    21107915.113  
     -2085.593       -1625.137          52.000          46.000  
 19  4  7 18 28 20.0000000  0 10G23G18G16G07G08G09G30G11G28G27
  25203591.53627  19630827.40766  22938245.846    22938244.768    22938246.908  
     -3218.182       -2507.674          43.000          39.000  
  -2296158.70326  -1747777.45166  23846067.248    23846066.359    23846072.053  
      3482.497        2713.634          41.000          38.000  
  24997428.93127  19469802.16166  23063381.939    23063380.280    23063383.867  
     -2761.759       -2152.020          45.000          40.000  
  23014395.46328  17944665.40567  20976038.805    20976037.890    20976040.880  
      1939.539        1511.329          52.000          45.000  
  23724274.57028  18488476.04467  20237806.704    20237805.033    20237810.635  
       187.493         146.098          52.000          46.000  
  24653552.92627  19206418.83667  21749959.169    21749958.252    21749964.228  
     -1981.968       -1544.391          47.000          43.000  
  22566955.09727  17593214.83566  23213837.794    23213836.891    23213843.082  
      3124.555        2434.718          45.000          41.000  
  22393606.13627  17455646.77966  23475971.282    23475970.412    23475974.834  
      3555.102        2770.209          42.000          38.000  
  -1434246.02927  -1104512.38466  24810908.751    24810908.286    24810913.035  
      2392.521        1864.302          44.000          38.000  
  24701376.90728  19242698.07867  21111883.630    21111882.716    21111888.211  
     -2090.583       -1629.026          52.000          46.000  
 19  4  7 18 28 30.0000000  0 10G23G18G16G07G08G09G30G11G28G27
  25235781.22327  19655910.26466  22944371.091    22944370.212    22944372.487  
     -3220.206       -2509.251          43.000          39.000  
  -2330986.98226  -1774916.33566  23839439.584    23839438.725    23839444.376  
      3482.386        2713.548          41.000          38.000  
  25025042.69127  19491319.36166  23068636.608    23068635.028    23068638.556  
     -2761.673       -2151.953          46.000          40.000  
  22995012.13828  17929561.49367  20972350.284    20972349.354    20972352.332  
      1936.454        1508.925          52.000          45.000  
  23722424.92328  18487034.76367  20237454.735    20237453.062    20237458.651  
       181.764         141.634          52.000          46.000  
  24673395.40127  19221880.50867  21753735.085    21753734.165    21753740.172  
     -1986.931       -1548.258          47.000          43.000  
  22535709.95327  17568867.98466  23207891.945    23207891.074    23207897.309  
      3123.836        2434.158          45.000          41.000  
  22358053.31527  17427943.28666  23469205.858    23469204.965    23469209.328  
      3554.610        2769.826          44.000          38.000  
  -1458172.57727  -1123156.43466  24806355.722    24806355.012    24806359.909  
      2391.859        1863.786          43.000          38.000  
  24722303.46628  19259004.48267  21115865.830    21115864.932    21115870.412  
     -2095.233       -1632.649          52.000          46.000  
 19  4  7 18 28 40.0000000  0 10G23G18G16G07G08G09G30G11G28G27
  25267994.42627  19681011.42966  22950501.104    22950500.154    22950502.494  
     -3222.598       -2511.115          45.000          39.000  
  -2365806.40127  -1802048.30266  23832813.641    23832812.791    23832818.453  
      3481.422        2712.796          42.000          38.000  
  25052663.18927  19512841.82466  23073892.604    23073891.029    23073894.532  
     -2762.361       -2152.489          46.000          40.000  
  22975665.47628  17914486.17767  20968668.690    20968667.782    20968670.795  
      1932.539        1505.875          52.000          45.000  
  23720639.21328  18485643.30467  20237114.913    20237113.264    20237118.829  
       175.170         136.496          52.000          46.000  
  24693290.12927  19237382.87467  21757520.986    21757520.011    21757525.985  
     -1992.390       -1552.512          47.000          43.000  
  22504477.92727  17544531.34566  23201948.660    23201947.812    23201954.087  
      3122.279        2432.945          44.000          41.000  
  22322514.76327  17400250.89666  23462443.261    23462442.307    23462446.532  
      3552.703        2768.340          43.000          39.000  
  -1482087.98427  -1141791.80666  24801804.480    24801804.042    24801809.003  
      2390.652        1862.846          43.000          38.000  
  24743281.09728  19275350.68367  21119857.740    21119856.849    21119862.336  
     -2100.735       -1636.936          52.000          46.000  
 19  4  7 18 28 50.0000000  0 10G23G18G16G07G08G09G30G11G28G27
  25300232.03627  19706131.62266  22956635.728    22956634.839    22956637.144  
     -3224.898       -2512.908          44.000          39.000  
  -2400615.86726  -1829172.53166  23826189.505    23826188.742    23826194.445  
      3480.745        2712.269          40.000          37.000  
  25080291.45527  19534370.33866  23079150.021    23079148.486    23079152.036  
     -2763.140       -2153.096          45.000          40.000  
  22956356.45328  17899440.19067  20964994.287    20964993.378    20964996.416  
      1929.247        1503.309          52.000          45.000  
  23718918.12428  18484302.19767  20236787.432    20236785.768    20236791.334  
       168.962         131.659          52.000          46.000  
  24713237.92427  19252926.61367  21761316.888    21761315.958    21761321.927  
     -1997.205       -1556.264          47.000          43.000  
  22473259.99627  17520205.69666  23196008.086    23196007.217    23196013.521  
      3121.216        2432.116          45.000          41.000  
  22286991.41327  17372570.37066  23455683.413    23455682.476    23455686.723  
      3551.645        2767.516          42.000          39.000  
  -1505991.43427  -1160417.85166  24797255.841    24797255.300    24797260.299  
      2389.741        1862.136          44.000          38.000  
  24764310.65928  19291737.35467  21123859.558    21123858.638    21123864.121  
     -2105.564       -1640.699          52.000          46.000  
 19  4  7 18 29  0.0000000  0 10G23G18G16G07G08G09G30G11G28G27
  25332490.63727  19731268.17466  22962774.342    22962773.444    22962775.781  
     -3226.709       -2514.319          44.000          39.000  
  -2435418.57726  -1856291.49866  23819566.606    23819565.891    23819571.684  
      3480.044        2711.723          40.000          37.000  
  25107924.12627  19555902.27866  23084408.279    23084406.838    23084410.381  
     -2763.446       -2153.334          45.000          40.000  
  22937081.97028  17884421.11467  20961326.500    20961325.546    20961328.597  
      1925.862        1500.672          52.000          45.000  
  23717258.59028  18483009.05267  20236471.666    20236469.968    20236475.523  
       162.933         126.961          52.000          46.000  
  24733235.48927  19268509.11867  21765122.300    21765121.359    21765127.388  
     -2001.876       -1559.903          47.000          43.000  
  22442052.98727  17495888.55266  23190069.587    23190068.681    23190075.007  
      3120.324        2431.421          45.000          41.000  
  22251480.23927  17344899.34966  23448925.745    23448924.853    23448929.216  
      3550.711        2766.788          42.000          39.000  
  -1529886.14627  -1179037.07866  24792708.963    24792708.244    24792713.188  
      2389.103        1861.639          44.000          38.000  
  24785388.80528  19308161.87567  21127870.571    21127869.675    21127875.160  
     -2110.110       -1644.242          52.000          46.000  
 19  4  7 18 29 10.0000000  0 10G23G18G16G07G08G09G30G11G28G27
  25364771.03627  19756421.72266  22968917.148    22968916.166    22968918.452  
     -3228.992       -2516.098          44.000          39.000  
  -2470213.33227  -1883404.24566  23812945.301    23812944.629    23812950.484  
      3479.137        2711.016          42.000          37.000  
  25135562.10627  19577438.36766  23089667.631    23089666.197    23089669.748  
     -2764.166       -2153.896          46.000          40.000  
  22917843.07828  17869429.76767  20957665.461    20957664.498    20957667.559  
      1922.229        1497.841          52.000          45.000  
  23715661.43328  18481764.51767  20236167.734    20236166.044    20236171.602  
       156.725         122.123          53.000          46.000  
  24753283.64727  19284131.04567  21768937.303    21768936.388    21768942.404  
     -2007.292       -1564.124          46.000          43.000  
  22410857.89127  17471580.68866  23184133.354    23184132.460    23184138.792  
      3119.326        2430.644          44.000          41.000  
  22215982.31827  17317238.66766  23442170.606    23442169.820    23442174.138  
      3549.289        2765.680          42.000          38.000  
  -1553771.21727  -1197648.79366  24788163.781    24788163.119    24788168.127  
      2388.160        1860.904          43.000          38.000  
  24806516.35428  19324624.89867  21131891.034    21131890.118    21131895.603  
     -2115.051       -1648.092          52.000          46.000  
 19  4  7 18 29 20.0000000  0 10G23G18G16G07G08G09G30G11G28G27
  25397072.66827  19781591.81666  22975064.003    22975062.989    22975065.248  
     -3231.509       -2518.059          44.000          39.000  
  -2505000.56926  -1910511.15566  23806325.610    23806324.773    23806330.549  
      3477.938        2710.082          40.000          37.000  
  25163204.94927  19598978.23866  23094927.918    23094926.483    23094930.021  
     -2764.948       -2154.505          46.000          40.000  
  22898639.40728  17854465.87467  20954011.083    20954010.137    20954013.220  
      1918.107        1494.629          52.000          45.000  
  23714126.17728  18480568.22067  20235875.596    20235873.911    20235879.453  
       150.166         117.012          52.000          46.000  
  24773381.87727  19299791.99967  21772761.864    21772760.961    21772767.010  
     -2012.910       -1568.501          47.000          43.000  
  22379674.36927  17447281.85266  23178199.339    23178198.417    23178204.797  
      3117.238        2429.017          45.000          41.000  
  22180497.31227  17289588.02366  23435418.071    23435417.227    23435421.552  
      3547.754        2764.484          44.000          38.000  
  -1577647.09727  -1216253.34466  24783620.254    24783619.639    24783624.693  
      2386.724        1859.785          44.000          38.000  
  24827692.82528  19341126.03967  21135920.792    21135919.877    21135925.371  
     -2120.528       -1652.359          52.000          46.000  
 19  4  7 18 29 30.0000000  0 10G23G18G16G07G08G09G30G11G28G27
  25429398.29727  19806780.59866  22981215.300    22981214.365    22981216.711  
     -3232.952       -2519.183          43.000          39.000  
  -2539777.32127  -1937609.88466  23799707.822    23799706.984    23799712.782  
      3477.354        2709.626          42.000          37.000  
  25190855.42927  19620524.04366  23100189.695    23100188.216    23100191.741  
     -2765.293       -2154.774          46.000          40.000  
  22879473.85228  17839531.67767  20950363.981    20950363.039    20950366.124  
      1914.866        1492.103          52.000          45.000  
  23712655.51328  18479422.24567  20235595.737    20235594.061    20235599.590  
       144.216         112.376          53.000          46.000  
  24793532.89127  19315494.08667  21776596.418    21776595.546    21776601.625  
     -2017.825       -1572.331          46.000          43.000  
  22348505.29027  17422994.27566  23172268.078    23172267.127    23172273.537  
      3116.513        2428.452          45.000          41.000  
  22145028.07127  17261949.66166  23428668.628    23428667.748    23428671.931  
      3546.380        2763.413          44.000          39.000  
  -1601510.97927  -1234848.55266  24779079.064    24779078.479    24779083.562  
      2386.069        1859.275          45.000          38.000  
  24848920.85428  19357667.35967  21139960.349    21139959.430    21139964.942  
     -2125.260       -1656.047          51.000          46.000  
 19  4  7 18 29 40.0000000  0 10G23G18G16G07G08G09G30G11G28G27
  25461744.84427  19831985.67266  22987370.622    22987369.711    22987372.020  
     -3235.550       -2521.208          44.000          39.000  
  -2574546.34926  -1964702.60066  23793091.435    23793090.660    23793096.422  
      3476.555        2709.004          41.000          37.000  
  25218510.62227  19642073.54266  23105452.306    23105450.835    23105454.314  
     -2765.908       -2155.253          45.000          40.000  
  22860343.55828  17824624.95567  20946723.630    20946722.647    20946725.741  
      1911.386        1489.392          52.000          45.000  
  23711246.70228  18478324.47367  20235327.647    20235325.980    20235331.509  
       137.876         107.436          52.000          46.000  
  24813733.67027  19331234.92767  21780440.583    21780439.669    21780445.722  
     -2022.583       -1576.039          47.000          43.000  
  22317347.79627  17398715.71266  23166338.931    23166338.031    23166344.437  
      3115.349        2427.545          44.000          41.000  
  22109571.71627  17234321.33166  23421921.589    23421920.644    23421924.830  
      3545.020        2762.353          44.000          39.000  
  -1625365.74627  -1253436.65466  24774539.780    24774539.087    24774544.189  
      2385.041        1858.474          46.000          38.000  
  24870197.52828  19374246.57867  21144009.144    21144008.255    21144013.765  
     -2130.010       -1659.748          52.000          46.000  
 19  4  7 18 29 50.0000000  0 10G23G18G16G07G08G09G30G11G28G27
  25494111.47527  19857206.40666  22993529.785    22993528.792    22993531.155  
     -3238.574       -2523.564          43.000          39.000  
  -2609308.37926  -1991789.87066  23786476.383    23786475.583    23786481.327  
      3475.156        2707.914          40.000          37.000  
  25246169.74627  19663626.09866  23110715.697    23110714.163    23110717.689  
     -2766.760       -2155.917          46.000          40.000  
  22841247.90528  17809745.23267  20943089.863    20943088.859    20943091.957  
      1907.244        1486.164          52.000          45.000  
  23709898.79928  18477274.15967  20235071.169    20235069.472    20235075.005  
       131.019         102.093          52.000          46.000  
  24833983.37227  19347013.92467  21784294.005    21784293.062    21784299.105  
     -2028.001       -1580.261          46.000          43.000  
  22286201.19827  17374445.64666  23160411.897    23160411.063    23160417.483  
      3113.551        2426.144          46.000          41.000  
  22074127.58227  17206702.53366  23415176.760    23415175.794    23415179.975  
      3543.235        2760.962          43.000          39.000  
  -1649212.13427  -1272018.24066  24770001.934    24770001.196    24770006.286  
      2383.734        1857.455          45.000          38.000  
  24891521.91528  19390862.98167  21148067.048    21148066.163    21148071.672  
     -2135.391       -1663.941          51.000          46.000  
 19  4  7 18 30  0.0000000  0 10G23G18G16G07G08G09G30G11G28G27
  25526505.25427  19882448.29466  22999694.042    22999693.106    22999695.534  
     -3239.973       -2524.654          44.000          39.000  
  -2644056.13526  -2018866.01266  23779864.009    23779863.154    23779869.021  
      3474.966        2707.766          39.000          36.000  
  25273839.85827  19685187.22166  23115981.106    23115979.624    23115983.154  
     -2766.559       -2155.760          45.000          40.000  
  22822194.00628  17794898.03667  20939463.968    20939463.005    20939466.110  
      1904.210        1483.800          52.000          45.000  
  23708618.89628  18476276.83867  20234827.556    20234825.916    20234831.461  
       125.498          97.791          52.000          46.000  
  24854289.00127  19362836.47567  21788157.956    21788157.099    21788163.148  
     -2032.408       -1583.695          46.000          43.000  
  22255072.70027  17350189.68166  23154488.470    23154487.485    23154493.864  
      3113.048        2425.752          45.000          41.000  
  22038703.00527  17179098.98866  23408435.576    23408434.682    23408438.865  
      3542.269        2760.210          42.000          39.000  
  -1673043.07627  -1290587.80666  24765466.952    24765466.236    24765471.344  
      2382.973        1856.862          45.000          37.000  
  24912901.06528  19407522.05467  21152135.370    21152134.487    21152139.988  
     -2139.819       -1667.391          51.000          46.000  
 19  4  7 18 30 10.0000000  0 10G23G18G16G07G08G09G30G11G28G27
  25558916.20127  19907703.55466  23005861.810    23005860.785    23005863.092  
     -3242.125       -2526.331          45.000          39.000  
  -2678799.20626  -2045938.48266  23773252.307    23773251.550    23773257.495  
      3474.269        2707.223          38.000          36.000  
  25301511.19127  19706749.28666  23121246.719    23121245.323    23121248.843  
     -2767.407       -2156.421          46.000          40.000  
  22803172.21528  17780075.87367  20935844.263    20935843.256    20935846.397  
      1900.266        1480.727          52.000          45.000  
  23707397.29528  18475324.93867  20234595.092    20234593.442    20234598.996  
       119.000          92.727          52.000          46.000  
  24874640.77827  19378695.00167  21792030.765    21792029.900    21792035.960  
     -2037.749       -1587.856          47.000          43.000  
  22223952.63127  17325940.29366  23148566.408    23148565.534    23148571.943  
      3111.366        2424.441          45.000          41.000  
  22003288.31727  17151503.14466  23401696.333    23401695.511    23401699.632  
      3540.898        2759.141          43.000          39.000  
  -1696868.30427  -1309152.92766  24760933.153    24760932.431    24760937.591  
      2381.989        1856.095          46.000          37.000  
  24934325.16028  19424216.14867  21156212.262    21156211.348    21156216.867  
     -2144.925       -1671.370          52.000          46.000  
 19  4  7 18 30 20.0000000  0 10G23G18G16G07G08G09G30G11G28G27
  25591348.79127  19932975.70466  23012033.508    23012032.505    23012034.722  
     -3244.677       -2528.320          44.000          39.000  
  -2713532.90426  -2073003.69066  23766642.626    23766642.050    23766647.982  
      3472.071        2705.510          41.000          36.000  
  25329188.15127  19728315.73566  23126513.538    23126512.110    23126515.626  
     -2768.274       -2157.097          46.000          40.000  
  22784187.30228  17765282.43367  20932231.511    20932230.543    20932233.680  
      1896.365        1477.687          52.000          45.000  
  23706238.45328  18474421.95267  20234374.560    20234372.906    20234378.481  
       112.497          87.660          52.000          46.000  
  24895043.08027  19394592.88967  21795913.248    21795912.341    21795918.389  
     -2043.135       -1592.053          47.000          43.000  
  22192845.60127  17301701.05366  23142646.981    23142646.114    23142652.472  
      3109.506        2422.992          46.000          41.000  
  21967888.10027  17123918.57466  23394959.927    23394959.109    23394963.237  
      3538.825        2757.526          44.000          39.000  
  -1720683.28327  -1327710.04566  24756401.374    24756400.541    24756405.804  
      2380.734        1855.117          45.000          37.000  
  24955798.57828  19440948.68467  21160298.471    21160297.588    21160303.133  
     -2150.084       -1675.390          52.000          46.000  
 19  4  7 18 30 30.0000000  0 10G23G18G16G07G08G09G30G11G28G27
  25623803.28627  19958264.92566  23018209.342    23018208.374    23018210.602  
     -3247.114       -2530.219          44.000          39.000  
  -2748256.80326  -2100061.25066  23760035.016    23760034.309    23760040.261  
      3471.400        2704.987          40.000          36.000  
  25356871.30427  19749887.00466  23131781.493    23131780.105    23131783.546  
     -2769.176       -2157.799          46.000          40.000  
  22765239.44928  17750517.87767  20928625.835    20928624.864    20928628.027  
      1892.527        1474.696          52.000          45.000  
  23705142.70428  18473568.12667  20234166.044    20234164.390    20234169.975  
       105.996          82.594          52.000          46.000  
  24915496.21427  19410530.39467  21799805.330    21799804.419    21799810.472  
     -2048.148       -1595.959          46.000          43.000  
  22161751.99227  17277472.26966  23136730.105    23136729.163    23136735.521  
      3108.304        2422.055          46.000          41.000  
  21932502.84727  17096345.65566  23388226.446    23388225.561    23388229.647  
      3537.045        2756.139          44.000          39.000  
  -1744487.58627  -1346258.84766  24751871.541    24751870.663    24751875.935  
      2379.528        1854.178          45.000          37.000  
  24977321.63328  19457719.88967  21164394.212    21164393.295    21164398.830  
     -2155.228       -1679.398          52.000          46.000  
 19  4  7 18 30 40.0000000  0 10G23G18G16G07G08G09G30G11G28G27
  25656279.05827  19983570.70866  23024389.234    23024388.412    23024390.663  
     -3248.082       -2530.973          44.000          39.000  
  -2782971.24126  -2127111.42866  23753429.109    23753428.455    23753434.248  
      3471.646        2705.179          40.000          36.000  
  25384560.24027  19771462.80066  23137050.494    23137049.142    23137052.535  
     -2768.594       -2157.346          45.000          40.000  
  22746328.27828  17735781.90067  20925027.144    20925026.178    20925029.349  
      1889.971        1472.705          52.000          45.000  
  23704109.67628  18472763.16867  20233969.439    20233967.795    20233973.392  
       100.869          78.599          52.000          46.000  
  24935999.59427  19426507.04167  21803707.008    21803706.108    21803712.125  
     -2052.055       -1599.004          47.000          42.000  
  22130671.44727  17253253.66666  23130815.743    23130814.733    23130821.077  
      3108.458        2422.175          46.000          41.000  
  21897132.24327  17068784.15566  23381495.651    23381494.777    23381498.857  
      3537.195        2756.256          44.000          39.000  
  -1768281.79127  -1364799.77566  24747343.766    24747342.826    24747347.910  
      2379.804        1854.393          45.000          37.000  
  24998893.73828  19474529.31767  21168499.270    21168498.309    21168503.871  
     -2158.984       -1682.325          51.000          46.000  
 19  4  7 18 30 50.0000000  0 10G23G18G16G07G08G09G30G11G28G27
  25688775.83727  20008892.84666  23030573.287    23030572.330    23030574.609  
     -3250.854       -2533.133          44.000          39.000  
  -2817676.38126  -2154154.35466  23746824.914    23746824.166    23746829.941  
      3469.176        2703.254          39.000          36.000  
  25412254.44927  19793042.68566  23142320.539    23142319.280    23142322.558  
     -2769.777       -2158.268          46.000          40.000  
  22727453.76028  17721074.48767  20921435.433    20921434.463    20921437.653  
      1885.541        1469.253          51.000          45.000  
  23703139.11528  18472006.89067  20233784.747    20233783.102    20233788.689  
        93.640          72.966          52.000          46.000  
  24956552.94627  19442522.63767  21807618.208    21807617.241    21807623.311  
     -2057.852       -1603.521          46.000          42.000  
  22099603.86727  17229045.17666  23124903.850    23124902.759    23124909.103  
      3105.617        2419.961          46.000          41.000  
  21861776.15027  17041233.96066  23374767.571    23374766.767    23374770.830  
      3534.805        2754.394          44.000          39.000  
  -1792066.12027  -1383332.97966  24742817.677    24742816.742    24742821.825  
      2377.774        1852.811          45.000          37.000  
  25020514.61528  19491376.74767  21172613.551    21172612.637    21172618.211  
     -2164.636       -1686.729          51.000          46.000  
 19  4  7 18 31  0.0000000  0 10G23G18G16G07G08G09G30G11G28G27
  25721294.88727  20034232.35866  23036761.442    23036760.505    23036762.777  
     -3253.528       -2535.217          44.000          39.000  
  -2852370.65526  -2181188.81765  23740222.685    23740221.974    23740227.785  
      3468.639        2702.836          39.000          35.000  
  25439955.32127  19814627.77866  23147591.861    23147590.583    23147593.811  
     -2770.530       -2158.854          46.000          40.000  
  22708617.35828  17706396.77167  20917850.949    20917850.015    20917853.178  
      1881.633        1466.208          52.000          45.000  
  23702232.40628  18471300.36367  20233612.208    20233610.549    20233616.150  
        87.390          68.096          52.000          46.000  
  24977157.56527  19458578.16667  21811539.116    21811538.186    21811544.243  
     -2063.120       -1607.626          47.000          42.000  
  22068550.64827  17204847.87566  23118994.567    23118993.543    23118999.874  
      3104.492        2419.085          46.000          41.000  
  21826436.07527  17013696.25266  23368042.619    23368041.784    23368045.779  
      3533.207        2753.148          45.000          39.000  
  -1815839.12227  -1401857.35766  24738293.833    24738292.933    24738297.937  
      2376.572        1851.874          45.000          37.000  
  25042185.56428  19508263.19767  21176737.408    21176736.465    21176742.054  
     -2169.607       -1690.603          51.000          46.000  
 19  4  7 18 31 10.0000000  0 10G23G18G16G07G08G09G30G11G28G27
  25753834.32527  20059587.74666  23042953.445    23042952.496    23042954.840  
     -3255.193       -2536.514          43.000          38.000  
  -2887055.74626  -2208216.13466  23733622.226    23733621.530    23733627.364  
      3468.106        2702.420          38.000          36.000  
  25467661.03027  19836216.63366  23152864.195    23152862.890    23152866.045  
     -2770.692       -2158.981          47.000          40.000  
  22689817.32828  17691747.39867  20914273.460    20914272.468    20914275.657  
      1878.271        1463.588          52.000          45.000  
  23701387.45728  18470641.96167  20233451.423    20233449.767    20233455.373  
        81.389          63.420          52.000          46.000  
  24997811.56327  19474672.19067  21815469.433    21815468.523    21815474.570  
     -2067.809       -1611.280          47.000          42.000  
  22037510.14727  17180660.47066  23113087.726    23113086.741    23113093.050  
      3103.323        2418.174          45.000          41.000  
  21791110.31027  16986169.68666  23361320.398    23361319.545    23361323.532  
      3532.034        2752.234          44.000          39.000  
  -1839602.63527  -1420374.36066  24733771.789    24733770.961    24733775.976  
      2376.074        1851.486          45.000          36.000  
  25063904.71028  19525187.20367  21180870.418    21180869.476    21180875.088  
     -2174.371       -1694.315          51.000          46.000  
 19  4  7 18 31 20.0000000  0 10G23G18G16G07G08G09G30G11G28G27
  25786395.64427  20084960.18166  23049149.478    23049148.723    23049151.090  
     -3256.889       -2537.836          43.000          38.000  
  -2921729.83626  -2235234.86066  23727023.627    23727023.249    23727029.093  
      3467.220        2701.730          39.000          36.000  
  25495373.21827  19857810.53466  23158137.708    23158136.390    23158139.550  
     -2770.748       -2159.024          46.000          40.000  
  22671055.47728  17677127.78167  20910703.146    20910702.209    20910705.377  
      1874.896        1460.958          52.000          45.000  
  23700606.08328  18470033.09867  20233302.718    20233301.084    20233306.673  
        75.549          58.869          52.000          46.000  
  25018516.50327  19490805.89867  21819409.448    21819408.541    21819414.603  
     -2072.372       -1614.835          47.000          42.000  
  22006484.05127  17156484.30266  23107183.672    23107182.673    23107188.988  
      3102.620        2417.626          46.000          41.000  
  21755800.60227  16958655.64266  23354601.096    23354600.387    23354604.337  
      3530.718        2751.209          43.000          39.000  
  -1863354.95727  -1438882.64166  24729251.804    24729251.047    24729255.926  
      2375.424        1850.980          45.000          36.000  
  25085673.57428  19542149.95367  21185012.893    21185011.938    21185017.561  
     -2178.828       -1697.788          51.000          46.000  
 19  4  7 18 31 30.0000000  0 10G23G18G16G07G08G09G30G11G28G27
  25818976.41727  20110347.78666  23055349.574    23055348.671    23055351.032  
     -3258.960       -2539.449          45.000          39.000  
  -2956395.06426  -2262246.70566  23720427.218    23720426.612    23720432.487  
      3466.248        2700.972          39.000          36.000  
  25523089.56727  19879407.67966  23163411.945    23163410.693    23163413.822  
     -2771.792       -2159.838          47.000          40.000  
  22652329.58628  17662536.17967  20907139.737    20907138.775    20907141.944  
      1870.876        1457.825          52.000          45.000  
  23699886.12028  18469472.09567  20233165.711    20233164.071    20233169.668  
        68.954          53.730          52.000          46.000  
  25039270.01527  19506977.45967  21823358.678    21823357.818    21823363.838  
     -2077.707       -1618.992          46.000          42.000  
  21975470.11927  17132317.60866  23101281.953    23101280.953    23101287.246  
      3100.827        2416.229          46.000          41.000  
  21720504.75527  16931152.40366  23347884.405    23347883.737    23347887.747  
      3529.023        2749.888          43.000          39.000  
  -1887098.48627  -1457384.06565  24724733.509    24724732.816    24724737.598  
      2374.001        1849.871          45.000          35.000  
  25107489.76028  19559149.57167  21189164.410    21189163.434    21189169.046  
     -2183.774       -1701.642          52.000          46.000  
 19  4  7 18 31 40.0000000  0 10G23G18G16G07G08G09G30G11G28G27
  25851577.03827  20135750.84866  23061553.412    23061552.352    23061554.783  
     -3261.048       -2541.076          44.000          39.000  
  -2991050.89526  -2289251.21666  23713832.300    23713831.751    23713837.681  
      3465.047        2700.037          39.000          36.000  
  25550810.55727  19901008.44366  23168687.124    23168685.833    23168688.977  
     -2772.120       -2160.093          46.000          40.000  
  22633640.18628  17647973.00967  20903583.238    20903582.303    20903585.464  
      1867.238        1454.991          52.000          45.000  
  23699227.75628  18468959.08867  20233040.416    20233038.782    20233044.396  
        62.917          49.026          52.000          46.000  
  25060072.43427  19523187.12567  21827317.249    21827316.387    21827322.418  
     -2082.301       -1622.572          47.000          42.000  
  21944468.90527  17108160.82566  23095382.563    23095381.590    23095387.879  
      3099.735        2415.378          46.000          41.000  
  21685223.37627  16903660.44066  23341170.497    23341169.904    23341173.882  
      3527.533        2748.727          44.000          39.000  
  -1910832.70627  -1475878.23565  24720217.099    24720216.218    24720221.116  
      2372.980        1849.075          45.000          35.000  
  25129353.69828  19576186.40967  21193324.992    21193324.008    21193329.617  
     -2188.591       -1705.396          51.000          46.000  
 19  4  7 18 31 50.0000000  0 10G23G18G16G07G08G09G30G11G28G27
  25884199.68327  20161171.06966  23067761.246    23067760.265    23067762.807  
     -3264.117       -2543.468          44.000          39.000  
  -3025695.03026  -2316246.61266  23707239.417    23707239.023    23707245.194  
      3462.969        2698.417          38.000          36.000  
  25578538.37427  19922614.52166  23173963.531    23173962.284    23173965.462  
     -2773.820       -2161.418          46.000          40.000  
  22614989.64628  17633440.12067  20900034.183    20900033.225    20900036.389  
      1862.593        1451.371          51.000          45.000  
  23698633.26928  18468495.85367  20232927.322    20232925.658    20232931.287  
        55.613          43.335          52.000          46.000  
  25080925.95127  19539436.62267  21831285.617    21831284.684    21831290.678  
     -2088.688       -1627.549          46.000          42.000  
  21913482.74527  17084015.77866  23089486.086    23089485.107    23089491.391  
      3097.436        2413.586          46.000          41.000  
  21649958.82327  16876181.57166  23334459.980    23334459.306    23334463.235  
      3524.878        2746.658          44.000          39.000  
  -1934555.37027  -1494363.43765  24715702.899    24715701.883    24715706.742  
      2371.290        1847.758          45.000          34.000  
  25151267.50228  19593262.09667  21197495.037    21197494.065    21197499.679  
     -2194.563       -1710.049          52.000          46.000  
 19  4  7 18 32  0.0000000  0 10G23G18G16G07G08G09G30G11G28G27
  25916844.02127  20186608.19966  23073973.284    23073972.353    23073974.774  
     -3265.394       -2544.463          45.000          39.000  
  -3060327.29826  -2343232.76666  23700648.945    23700648.782    23700654.992  
      3462.955        2698.406          41.000          36.000  
  25606272.86127  19944225.80866  23179241.246    23179240.009    23179243.163  
     -2773.480       -2161.153          46.000          40.000  
  22596377.71428  17618937.32467  20896492.453    20896491.496    20896494.659  
      1859.533        1448.987          52.000          45.000  
  23698102.55428  18468082.30867  20232826.335    20232824.661    20232830.306  
        50.147          39.076          52.000          46.000  
  25101830.28227  19555725.69867  21835263.560    21835262.667    21835268.671  
     -2092.750       -1630.714          46.000          42.000  
  21882511.49927  17059882.33966  23083592.437    23083591.522    23083597.726  
      3096.717        2413.026          45.000          41.000  
  21614711.02627  16848715.76066  23327752.617    23327751.830    23327755.811  
      3524.283        2746.195          43.000          39.000  
  -1958266.61927  -1512839.77665  24711190.799    24711189.774    24711194.657  
      2370.711        1847.307          44.000          34.000  
  25173230.90028  19610376.42567  21201674.563    21201673.553    21201679.172  
     -2198.580       -1713.179          52.000          46.000  
 19  4  7 18 32 10.0000000  0 10G23G18G16G07G08G09G30G11G28G27
  25949505.31227  20212058.56166  23080188.500    23080187.578    23080189.868  
     -3267.041       -2545.746          43.000          38.000  
  -3094952.39826  -2370213.34766  23694060.163    23694059.745    23694065.876  
      3462.210        2697.826          40.000          36.000  
  25634009.35727  19965838.65366  23184519.345    23184518.099    23184521.289  
     -2773.837       -2161.431          46.000          40.000  
  22577800.06328  17604461.23867  20892957.224    20892956.275    20892959.434  
      1856.020        1446.249          52.000          45.000  
  23697630.88728  18467714.77567  20232736.550    20232734.909    20232740.538  
        44.072          34.342          52.000          46.000  
  25122780.75627  19572050.73467  21839250.251    21839249.407    21839255.412  
     -2097.524       -1634.434          46.000          42.000  
  21851550.71627  17035757.06566  23077700.820    23077699.860    23077706.086  
      3095.528        2412.100          46.000          41.000  
  21579475.46427  16821259.49366  23321047.497    23321046.735    23321050.713  
      3522.795        2745.035          44.000          39.000  
  -1981971.10227  -1531310.80965  24706679.910    24706678.949    24706683.868  
      2370.084        1846.819          45.000          34.000  
  25195239.20428  19627525.75367  21205862.608    21205861.619    21205867.226  
     -2203.153       -1716.743          51.000          46.000  
 19  4  7 18 32 20.0000000  0 10G23G18G16G07G08G09G30G11G28G27
  25982186.51227  20237524.41366  23086407.403    23086406.514    23086408.966  
     -3269.742       -2547.851          43.000          38.000  
  -3129567.08426  -2397185.82866  23687473.287    23687472.915    23687479.000  
      3460.293        2696.332          41.000          36.000  
  25661750.90627  19987455.43666  23189798.430    23189797.141    23189800.366  
     -2775.146       -2162.451          46.000          40.000  
  22559259.79028  17590014.27567  20889429.074    20889428.165    20889431.329  
      1851.594        1442.801          52.000          45.000  
  23697221.41528  18467395.70967  20232658.615    20232656.961    20232662.632  
        37.155          28.952          52.000          46.000  
  25143780.23827  19588413.96467  21843246.327    21843245.484    21843251.484  
     -2103.013       -1638.711          46.000          42.000  
  21820603.41627  17011642.30666  23071811.762    23071810.728    23071817.012  
      3093.471        2410.497          46.000          41.000  
  21544255.29127  16793815.21066  23314345.471    23314344.563    23314348.420  
      3520.324        2743.110          44.000          39.000  
  -2005665.77927  -1549774.19565  24702170.995    24702169.955    24702174.741  
      2368.391        1845.499          45.000          34.000  
  25217295.34628  19644712.35667  21210059.757    21210058.773    21210064.351  
     -2208.589       -1720.978          52.000          46.000  
 19  4  7 18 32 30.0000000  0 10G23G18G16G07G08G09G30G11G28G27
  26014890.80427  20263008.25666  23092630.882    23092629.989    23092632.448  
     -3271.449       -2549.181          45.000          39.000  
  -3164168.02127  -2424147.55066  23680888.962    23680888.488    23680894.654  
      3459.868        2696.001          42.000          36.000  
  25689500.82327  20009078.73366  23195079.061    23195077.814    23195080.977  
     -2775.470       -2162.704          46.000          40.000  
  22540760.23528  17575599.03667  20885908.744    20885907.832    20885910.973  
      1848.012        1440.009          52.000          45.000  
  23696877.34328  18467127.60467  20232593.166    20232591.492    20232597.149  
        31.043          24.189          52.000          46.000  
  25164832.07427  19604817.98167  21847252.376    21847251.535    21847257.513  
     -2107.948       -1642.557          47.000          42.000  
  21789673.05827  16987540.73066  23065925.928    23065924.888    23065931.178  
      3092.062        2409.399          46.000          41.000  
  21509053.93527  16766385.58766  23307646.850    23307645.900    23307649.812  
      3519.176        2742.215          44.000          39.000  
  -2029347.32727  -1568227.34465  24697664.515    24697663.410    24697668.231  
      2367.586        1844.872          44.000          35.000  
  25239402.56228  19661938.75367  21214266.605    21214265.617    21214271.218  
     -2213.175       -1724.552          52.000          46.000  
 19  4  7 18 32 40.0000000  0 10G23G18G16G07G08G09G30G11G28G27
  26047614.65127  20288507.34866  23098858.109    23098857.176    23098859.498  
     -3273.092       -2550.461          45.000          39.000  
  -3198758.33126  -2451101.03666  23674306.727    23674306.227    23674312.322  
      3458.443        2694.891          41.000          37.000  
  25717255.58327  20030705.81966  23200360.633    23200359.331    23200362.526  
     -2775.436       -2162.677          46.000          40.000  
  22522297.94128  17561212.85967  20882395.418    20882394.566    20882397.731  
      1844.675        1437.409          52.000          45.000  
  23696595.18228  18466907.74867  20232539.434    20232537.796    20232543.460  
        25.333          19.740          52.000          46.000  
  25185932.59327  19621259.93867  21851267.710    21851266.869    21851272.798  
     -2112.466       -1646.077          47.000          42.000  
  21758756.19927  16963449.68866  23060042.658    23060041.583    23060047.859  
      3091.163        2408.698          46.000          41.000  
  21473867.96627  16738967.97966  23300951.193    23300950.211    23300954.233  
      3518.090        2741.369          44.000          39.000  
  -2053019.21727  -1586672.97265  24693159.888    24693158.748    24693163.669  
      2366.833        1844.285          45.000          35.000  
  25261557.26928  19679202.15767  21218482.508    21218481.538    21218487.120  
     -2217.414       -1727.855          52.000          46.000  
 19  4  7 18 32 50.0000000  0 10G23G18G16G07G08G09G30G11G28G27
  26080356.54127  20314020.49766  23105088.784    23105087.718    23105090.013  
     -3275.426       -2552.280          44.000          38.000  
  -3233339.45627  -2478047.32966  23667726.028    23667725.569    23667731.754  
      3457.467        2694.130          42.000          37.000  
  25745013.89727  20052335.67266  23205642.835    23205641.586    23205644.759  
     -2776.302       -2163.352          46.000          39.000  
  22503871.79728  17546854.82267  20878889.079    20878888.183    20878891.341  
      1840.598        1434.232          52.000          45.000  
  23696373.59228  18466735.07667  20232497.269    20232495.641    20232501.281  
        19.010          14.813          52.000          46.000  
  25207080.42627  19637738.76667  21855292.020    21855291.202    21855297.132  
     -2117.196       -1649.763          46.000          42.000  
  21727851.60127  16939368.18866  23054161.624    23054160.644    23054166.899  
      3089.750        2407.597          46.000          41.000  
  21438696.32827  16711561.52166  23294258.265    23294257.285    23294261.353  
      3516.085        2739.806          44.000          39.000  
  -2076682.67727  -1605111.99466  24688656.924    24688655.730    24688660.617  
      2365.562        1843.295          44.000          36.000  
  25283758.08728  19696501.49667  21222707.168    21222706.206    21222711.782  
     -2222.513       -1731.828          52.000          46.000  
 19  4  7 18 33  0.0000000  0 10G23G18G16G07G08G09G30G11G28G27
  26113117.97927  20339548.87466  23111323.051    23111322.033    23111324.333  
     -3277.208       -2553.669          45.000          38.000  
  -3267909.50226  -2504985.01866  23661147.604    23661147.083    23661153.191  
      3456.166        2693.116          40.000          36.000  
  25772777.27027  20073969.44966  23210926.005    23210924.765    23210927.981  
     -2776.567       -2163.559          45.000          39.000  
  22485483.47228  17532526.26267  20875389.858    20875389.029    20875392.143  
      1836.819        1431.288          52.000          45.000  
  23696214.10028  18466610.80367  20232466.924    20232465.272    20232470.942  
        12.619           9.833          52.000          46.000  
  25228277.08927  19654255.63367  21859325.624    21859324.814    21859330.696  
     -2122.204       -1653.665          46.000          42.000  
  21696960.99727  16915297.59567  23048283.330    23048282.348    23048288.620  
      3088.061        2406.281          46.000          42.000  
  21403540.61727  16684167.45866  23287568.332    23287567.437    23287571.456  
      3514.752        2738.768          43.000          39.000  
  -2100336.14827  -1623543.23266  24684155.789    24684154.756    24684159.497  
      2364.906        1842.784          44.000          36.000  
  25306006.49428  19713837.91367  21226940.915    21226939.942    21226945.506  
     -2227.425       -1735.656          51.000          46.000  
 19  4  7 18 33 10.0000000  0 10G23G18G16G07G08G09G30G11G28G27
  26145900.68427  20365093.82666  23117561.390    23117560.420    23117562.760  
     -3279.246       -2555.257          44.000          38.000  
  -3302466.66727  -2531912.66166  23654571.555    23654571.112    23654577.191  
      3455.393        2692.514          43.000          37.000  
  25800547.52227  20095608.60866  23216210.515    23216209.249    23216212.464  
     -2777.074       -2163.954          46.000          39.000  
  22467134.89228  17518228.66667  20871898.204    20871897.379    20871900.526  
      1833.134        1428.416          52.000          45.000  
  23696118.60428  18466536.39367  20232448.729    20232447.097    20232452.784  
         6.590           5.135          52.000          46.000  
  25249524.29727  19670811.90067  21863368.883    21863368.045    21863373.877  
     -2127.089       -1657.472          47.000          42.000  
  21666086.22927  16891239.34167  23042408.055    23042407.114    23042413.359  
      3086.646        2405.179          46.000          42.000  
  21368402.68527  16656787.25766  23280881.740    23280880.894    23280884.849  
      3513.217        2737.572          44.000          39.000  
  -2123977.83327  -1641965.31466  24679656.888    24679655.915    24679660.694  
      2363.898        1841.998          44.000          36.000  
  25328304.21828  19731212.76667  21231184.066    21231183.061    21231188.600  
     -2231.853       -1739.106          52.000          46.000  
 19  4  7 18 33 20.0000000  0 10G23G18G16G07G08G09G30G11G28G27
  26178702.83527  20390653.92666  23123803.494    23123802.421    23123804.825  
     -3280.498       -2556.232          44.000          38.000  
  -3337012.34826  -2558831.36166  23647997.842    23647997.271    23648003.277  
      3454.824        2692.071          41.000          37.000  
  25828322.95827  20117251.80166  23221495.998    23221494.692    23221497.943  
     -2777.170       -2164.028          45.000          39.000  
  22448824.41028  17503960.75967  20868413.792    20868412.993    20868416.148  
      1829.727        1425.761          52.000          45.000  
  23696085.32628  18466510.46067  20232442.386    20232440.766    20232446.441  
         0.816           0.636          52.000          46.000  
  25270820.31227  19687406.18167  21867421.420    21867420.537    21867426.396  
     -2131.374       -1660.811          46.000          42.000  
  21635225.74827  16867192.22066  23036535.385    23036534.545    23036540.748  
      3085.992        2404.669          46.000          41.000  
  21333281.13327  16629419.83066  23274198.328    23274197.497    23274201.435  
      3511.876        2736.527          44.000          39.000  
  -2147609.43827  -1660379.52366  24675159.850    24675158.861    24675163.668  
      2363.162        1841.425          43.000          36.000  
  25350649.54328  19748624.69767  21235436.199    21235435.258    21235440.769  
     -2236.305       -1742.575          52.000          46.000  
 19  4  7 18 33 30.0000000  0 10G23G18G16G07G08G09G30G11G28G27
  26211521.95627  20416227.25366  23130048.806    23130047.754    23130050.081  
     -3282.696       -2557.945          45.000          38.000  
  -3371548.97027  -2585742.99366  23641425.577    23641425.172    23641431.298  
      3452.992        2690.643          42.000          37.000  
  25856101.04427  20138897.04366  23226781.971    23226780.675    23226783.955  
     -2778.051       -2164.715          46.000          39.000  
  22430549.60828  17489720.65567  20864936.185    20864935.398    20864938.579  
      1825.474        1422.447          52.000          45.000  
  23696111.74928  18466531.05367  20232447.416    20232445.807    20232451.473  
        -5.727          -4.463          52.000          46.000  
  25292162.46427  19704036.42967  21871482.680    21871481.854    21871487.675  
     -2136.741       -1664.993          47.000          42.000  
  21604377.06027  16843154.29267  23030665.097    23030664.211    23030670.447  
      3084.101        2403.196          46.000          42.000  
  21298173.39727  16602063.14866  23267517.655    23267516.736    23267520.611  
      3510.126        2735.163          44.000          39.000  
  -2171233.59427  -1678787.94465  24670664.177    24670663.250    24670668.105  
      2361.998        1840.518          43.000          35.000  
  25373039.79228  19766071.64367  21239696.909    21239695.992    21239701.479  
     -2241.414       -1746.556          52.000          46.000  
 19  4  7 18 33 40.0000000  0 10G23G18G16G07G08G09G30G11G28G27
  26244362.78827  20441817.50366  23136298.234    23136297.141    23136299.413  
     -3284.606       -2559.433          43.000          38.000  
  -3406071.79727  -2612643.85666  23634855.969    23634855.543    23634861.736  
      3451.719        2689.651          42.000          37.000  
  25883886.46827  20160548.01266  23232069.376    23232068.055    23232071.325  
     -2778.507       -2165.070          45.000          39.000  
  22412315.36228  17475512.15367  20861466.301    20861465.527    20861468.716  
      1821.563        1419.400          52.000          45.000  
  23696202.61428  18466601.85467  20232464.732    20232463.077    20232468.750  
       -12.024          -9.369          52.000          46.000  
  25313555.50827  19720706.32867  21875553.705    21875552.807    21875558.640  
     -2141.567       -1668.754          47.000          42.000  
  21573545.04027  16819129.34867  23024797.941    23024797.068    23024803.361  
      3082.620        2402.042          46.000          42.000  
  21263084.40727  16574721.09266  23260840.380    23260839.545    23260843.412  
      3508.329        2733.763          44.000          39.000  
  -2194845.53227  -1697186.83166  24666170.960    24666169.975    24666174.802  
      2360.674        1839.486          42.000          36.000  
  25395479.67628  19783557.26767  21243967.115    21243966.173    21243971.639  
     -2246.400       -1750.442          52.000          46.000  
 19  4  7 18 33 50.0000000  0 10G23G18G16G07G08G09G30G11G28G27
  26277222.43227  20467422.40266  23142551.125    23142550.166    23142552.445  
     -3287.004       -2561.302          44.000          38.000  
  -3440583.19527  -2639535.86566  23628288.834    23628288.356    23628294.345  
      3450.773        2688.914          42.000          37.000  
  25911676.57327  20182202.63966  23237357.593    23237356.347    23237359.580  
     -2779.163       -2165.582          46.000          39.000  
  22394118.97628  17461333.15567  20858003.643    20858002.882    20858006.076  
      1817.910        1416.553          52.000          45.000  
  23696355.14628  18466720.71067  20232493.747    20232492.106    20232497.777  
       -18.059         -14.072          52.000          46.000  
  25334996.57727  19737413.64367  21879633.809    21879632.922    21879638.727  
     -2146.408       -1672.526          46.000          42.000  
  21542727.00227  16795115.30866  23018933.383    23018932.572    23018938.898  
      3081.237        2400.964          46.000          41.000  
  21228011.57627  16547391.63666  23254166.254    23254165.463    23254169.324  
      3506.571        2732.393          44.000          39.000  
  -2218447.81827  -1715578.18066  24661679.501    24661678.684    24661683.459  
      2360.197        1839.115          43.000          36.000  
  25417966.33928  19801079.33967  21248246.188    21248245.256    21248250.708  
     -2250.807       -1753.876          52.000          46.000  
 19  4  7 18 34  0.0000000  0 10G23G18G16G07G08G09G30G11G28G27
  26310100.66427  20493041.79766  23148807.810    23148806.728    23148808.924  
     -3289.102       -2562.937          45.000          38.000  
  -3475083.28827  -2666419.02566  23621723.644    23621723.116    23621729.221  
      3449.465        2687.895          43.000          38.000  
  25939471.36327  20203860.91066  23242646.847    23242645.492    23242648.731  
     -2780.022       -2166.251          45.000          39.000  
  22375960.60228  17447183.77967  20854548.249    20854547.454    20854550.644  
      1813.680        1413.257          52.000          45.000  
  23696569.27828  18466887.57167  20232534.461    20232532.842    20232538.518  
       -24.798         -19.323          52.000          46.000  
  25356485.60727  19754158.33967  21883723.068    21883722.145    21883727.949  
     -2151.725       -1676.669          47.000          42.000  
  21511923.13827  16771112.29166  23013071.640    23013070.791    23013077.099  
      3079.298        2399.453          46.000          41.000  
  21192954.97527  16520074.80066  23247495.250    23247494.374    23247498.168  
      3504.712        2730.944          43.000          39.000  
  -2242040.40926  -1733961.95566  24657189.932    24657189.028    24657193.891  
      2358.511        1837.801          41.000          36.000  
  25440499.76928  19818637.85767  21252534.197    21252533.225    21252538.674  
     -2255.924       -1757.863          52.000          46.000  
 19  4  7 18 34 10.0000000  0 10G23G18G16G07G08G09G30G11G28G27
  26342997.85927  20518675.97966  23155067.934    23155066.805    23155069.089  
     -3290.529       -2564.049          44.000          38.000  
  -3509571.21926  -2693292.72666  23615160.824    23615160.307    23615166.284  
      3448.267        2686.961          41.000          37.000  
  25967271.30427  20225523.18866  23247937.015    23247935.619    23247938.883  
     -2780.104       -2166.315          46.000          39.000  
  22357840.87428  17433064.50567  20851100.189    20851099.403    20851102.568  
      1810.264        1410.595          52.000          45.000  
  23696845.60228  18467102.89067  20232587.043    20232585.414    20232591.091  
       -30.582         -23.830          52.000          46.000  
  25378023.05827  19770940.76567  21887821.532    21887820.600    21887826.401  
     -2156.051       -1680.040          46.000          42.000  
  21481133.97727  16747120.74366  23007212.652    23007211.814    23007218.118  
      3078.285        2398.664          46.000          41.000  
  21157915.27027  16492771.13866  23240827.295    23240826.506    23240830.265  
      3503.202        2729.768          43.000          39.000  
  -2265622.78327  -1752337.79266  24652702.296    24652701.409    24652706.270  
      2358.036        1837.431          43.000          36.000  
  25463080.38128  19836233.13167  21256831.138    21256830.187    21256835.623  
     -2260.441       -1761.383          52.000          46.000  
 19  4  7 18 34 20.0000000  0 10G23G18G16G07G08G09G30G11G28G27
  26375913.11727  20544324.19966  23161331.460    23161330.396    23161332.809  
     -3292.346       -2565.464          45.000          38.000  
  -3544047.69527  -2720157.48766  23608600.216    23608599.663    23608605.770  
      3447.400        2686.286          44.000          38.000  
  25995075.43527  20247188.74966  23253228.010    23253226.554    23253229.806  
     -2780.613       -2166.711          46.000          39.000  
  22339758.87028  17418974.63867  20847659.321    20847658.527    20847661.670  
      1806.541        1407.694          52.000          45.000  
  23697183.10228  18467365.88067  20232651.247    20232649.646    20232655.326  
       -36.439         -28.394          52.000          46.000  
  25399607.91627  19787760.11967  21891928.993    21891928.115    21891933.864  
     -2160.569       -1683.560          47.000          42.000  
  21450358.69727  16723140.01866  23001356.293    23001355.427    23001361.723  
      3077.287        2397.886          47.000          41.000  
  21122891.62427  16465479.99966  23234162.517    23234161.740    23234165.500  
      3501.862        2728.724          44.000          39.000  
  -2289195.95627  -1770706.51666  24648216.602    24648215.614    24648220.476  
      2357.108        1836.708          43.000          36.000  
  25485707.15028  19853864.37767  21261136.844    21261135.923    21261141.354  
     -2264.617       -1764.637          52.000          46.000  
 19  4  7 18 34 30.0000000  0 10G23G18G16G07G08G09G30G11G28G27
  26408850.07627  20569989.34566  23167599.215    23167598.165    23167600.549  
     -3294.270       -2566.964          45.000          38.000  
  -3578509.07327  -2747010.49866  23602042.461    23602041.810    23602047.747  
      3446.199        2685.350          42.000          37.000  
  26022887.54127  20268860.49966  23258520.379    23258519.035    23258522.337  
     -2780.915       -2166.947          45.000          39.000  
  22321718.52828  17404917.22767  20844226.311    20844225.546    20844228.714  
      1802.720        1404.717          52.000          45.000  
  23697585.73228  18467679.61267  20232727.895    20232726.257    20232731.933  
       -42.908         -33.435          52.000          46.000  
  25421243.85527  19804619.28667  21896046.178    21896045.292    21896051.045  
     -2165.316       -1687.259          46.000          42.000  
  21419601.18127  16699173.12666  22995503.341    22995502.467    22995508.733  
      3075.603        2396.574          46.000          41.000  
  21087887.99927  16438204.46166  23227501.641    23227500.781    23227504.555  
      3500.169        2727.404          44.000          39.000  
  -2312756.08227  -1789065.05166  24643733.413    24643732.226    24643737.049  
      2356.220        1836.016          42.000          36.000  
  25508383.81028  19871534.49867  21265452.080    21265451.159    21265456.593  
     -2269.541       -1768.474          52.000          46.000  
 19  4  7 18 34 40.0000000  0 10G23G18G16G07G08G09G30G11G28G27
  26441800.10727  20595664.68366  23173869.415    23173868.315    23173870.664  
     -3295.732       -2568.103          44.000          38.000  
  -3612963.44827  -2773858.05966  23595486.014    23595485.512    23595491.334  
      3444.970        2684.392          43.000          38.000  
  26050698.95327  20290531.72966  23263812.856    23263811.399    23263814.668  
     -2781.410       -2167.332          46.000          39.000  
  22303711.35728  17390885.67267  20840799.667    20840798.882    20840802.052  
      1798.907        1401.746          52.000          45.000  
  23698044.75428  18468037.29767  20232815.246    20232813.603    20232819.264  
       -49.025         -38.201          52.000          46.000  
  25442922.21827  19821511.51467  21900171.426    21900170.584    21900176.302  
     -2169.938       -1690.861          47.000          42.000  
  21388852.91327  16675213.43866  22989652.143    22989651.254    22989657.489  
      3074.165        2395.453          45.000          41.000  
  21052895.95527  16410937.93966  23220842.826    23220841.979    23220845.751  
      3498.437        2726.055          43.000          39.000  
  -2336311.72626  -1807420.06666  24639250.817    24639249.655    24639254.496  
      2354.524        1834.694          40.000          36.000  
  25531101.62028  19889236.68767  21269775.153    21269774.219    21269779.640  
     -2273.955       -1771.913          52.000          46.000  
 19  4  7 18 34 50.0000000  0 10G23G18G16G07G08G09G30G11G28G27
  26474771.94227  20621357.00166  23180143.672    23180142.660    23180145.031  
     -3298.603       -2570.340          43.000          38.000  
  -3647402.16127  -2800693.40766  23588932.560    23588931.891    23588937.665  
      3442.616        2682.558          43.000          37.000  
  26078518.73927  20312209.48466  23269106.804    23269105.269    23269108.538  
     -2782.501       -2168.182          44.000          39.000  
  22285746.40228  17376887.00667  20837381.054    20837380.279    20837383.432  
      1794.200        1398.078          52.000          45.000  
  23698569.10128  18468445.88267  20232915.059    20232913.400    20232919.040  
       -56.160         -43.761          52.000          46.000  
  25464651.85727  19838443.68967  21904306.456    21904305.617    21904311.338  
     -2175.787       -1695.418          47.000          42.000  
  21358122.89427  16651267.98666  22983804.321    22983803.518    22983809.751  
      3071.740        2393.564          46.000          41.000  
  21017924.54727  16383687.50666  23214187.946    23214187.159    23214190.959  
      3495.715        2723.934          44.000          39.000  
  -2359854.02926  -1825764.72466  24634770.821    24634769.685    24634774.524  
      2353.369        1833.794          41.000          36.000  
  25553869.50528  19906977.88967  21274107.732    21274106.820    21274112.254  
     -2279.557       -1776.278          52.000          46.000  
 19  4  7 18 35  0.0000000  0 10G23G18G16G07G08G09G30G11G28G27
  26507763.63627  20647064.78966  23186421.756    23186420.846    23186423.183  
     -3300.199       -2571.584          45.000          39.000  
  -3681826.73527  -2827517.74966  23582381.870    23582381.203    23582386.872  
      3442.151        2682.196          43.000          38.000  
  26106344.91327  20333892.19066  23274401.894    23274400.405    23274403.742  
     -2782.690       -2168.330          45.000          39.000  
  22267821.81928  17362919.79567  20833970.105    20833969.348    20833972.493  
      1790.572        1395.251          52.000          45.000  
  23699156.88128  18468903.89467  20233026.909    20233025.242    20233030.890  
       -61.779         -48.139          52.000          46.000  
  25486430.81527  19855414.29367  21908450.935    21908450.064    21908455.709  
     -2180.122       -1698.796          47.000          42.000  
  21327409.38727  16627335.39866  22977959.707    22977958.915    22977965.162  
      3070.899        2392.908          46.000          41.000  
  20982971.94127  16356451.72166  23207536.885    23207535.895    23207539.635  
      3494.200        2722.753          45.000          39.000  
  -2383384.80526  -1844100.36766  24630293.061    24630291.805    24630296.649  
      2352.708        1833.279          40.000          36.000  
  25576685.47228  19924756.56267  21278449.531    21278448.553    21278453.989  
     -2283.823       -1779.602          52.000          46.000  
 19  4  7 18 35 10.0000000  0 10G23G18G16G07G08G09G30G11G28G27
  26540771.52427  20672785.21666  23192703.028    23192702.131    23192704.394  
     -3301.424       -2572.538          44.000          39.000  
  -3716240.62927  -2854333.73666  23575833.082    23575832.469    23575838.072  
      3440.812        2681.152          45.000          38.000  
  26134173.96427  20355577.17066  23279697.588    23279696.061    23279699.463  
     -2782.931       -2168.518          45.000          39.000  
  22249934.16728  17348981.37067  20830566.164    20830565.443    20830568.567  
      1787.099        1392.545          52.000          45.000  
  23699804.41528  18469408.46667  20233150.118    20233148.462    20233154.117  
       -67.467         -52.572          52.000          46.000  
  25508255.42827  19872420.48867  21912604.068    21912603.167    21912608.806  
     -2184.544       -1702.242          46.000          42.000  
  21296708.89327  16603412.93266  22972117.683    22972116.820    22972123.044  
      3069.623        2391.914          46.000          41.000  
  20948034.66127  16329227.87066  23200888.417    23200887.514    23200891.195  
      3493.197        2721.972          43.000          39.000  
  -2406907.54326  -1862429.74566  24625816.834    24625815.592    24625820.369  
      2352.440        1833.070          40.000          36.000  
  25599545.86028  19942569.85467  21282799.725    21282798.747    21282804.179  
     -2288.038       -1782.887          52.000          46.000  
 19  4  7 18 35 20.0000000  0 10G23G18G16G07G08G09G30G11G28G27
  26573797.67827  20698519.86766  23198987.659    23198986.794    23198988.987  
     -3303.958       -2574.513          44.000          38.000  
  -3750641.58127  -2881139.66866  23569286.820    23569286.183    23569291.588  
      3439.364        2680.024          43.000          38.000  
  26162007.87727  20377265.92766  23284994.181    23284992.663    23284996.047  
     -2783.674       -2169.097          45.000          39.000  
  22232085.61728  17335073.40667  20827169.678    20827168.984    20827172.115  
      1782.864        1389.245          52.000          45.000  
  23700513.84328  18469961.26567  20233285.155    20233283.468    20233289.096  
       -74.034         -57.689          52.000          46.000  
  25530127.67727  19889463.79367  21916766.237    21916765.335    21916770.969  
     -2189.560       -1706.151          47.000          42.000  
  21266023.54727  16579502.28966  22966278.414    22966277.589    22966283.807  
      3067.623        2390.356          46.000          41.000  
  20913114.92427  16302017.71666  23194243.304    23194242.570    23194246.222  
      3490.723        2720.044          44.000          39.000  
  -2430420.30526  -1880751.34965  24621342.360    24621341.081    24621346.023  
      2350.923        1831.888          36.000          35.000  
  25622452.67428  19960419.30767  21287158.693    21287157.790    21287163.227  
     -2292.965       -1786.726          52.000          46.000  
 19  4  7 18 35 30.0000000  0 10G23G18G16G07G08G09G30G11G28G27
  26606842.17727  20724268.80166  23205275.821    23205274.959    23205277.058  
     -3305.172       -2575.459          44.000          38.000  
  -3785029.10727  -2907935.11766  23562743.112    23562742.581    23562748.064  
      3438.151        2679.079          45.000          38.000  
  26189846.96127  20398958.71766  23290291.848    23290290.181    23290293.640  
     -2783.814       -2169.206          45.000          39.000  
  22214276.64228  17321196.28867  20823780.732    20823780.050    20823783.178  
      1779.075        1386.292          52.000          45.000  
  23701285.53528  18470562.58467  20233431.992    20233430.311    20233435.947  
       -80.105         -62.419          52.000          46.000  
  25552047.83127  19906544.43167  21920937.543    21920936.579    21920942.246  
     -2194.305       -1709.848          46.000          42.000  
  21235353.81327  16555603.79266  22960442.234    22960441.348    22960447.513  
      3066.180        2389.231          46.000          41.000  
  20878213.22527  16274821.59866  23187601.827    23187601.004    23187604.660  
      3489.269        2718.911          44.000          39.000  
  -2453922.56926  -1899064.77165  24616869.792    24616868.782    24616873.855  
      2350.076        1831.228          38.000          35.000  
  25645406.15928  19978305.14467  21291526.606    21291525.677    21291531.143  
     -2297.559       -1790.306          52.000          46.000  
 19  4  7 18 35 40.0000000  0 10G23G18G16G07G08G09G30G11G28G27
  26639903.81327  20750031.10666  23211567.335    23211566.360    23211568.396  
     -3306.831       -2576.751          43.000          38.000  
  -3819404.41827  -2934721.08166  23556201.773    23556201.092    23556206.580  
      3436.890        2678.096          44.000          38.000  
  26217690.17527  20420654.70066  23295590.215    23295588.650    23295592.048  
     -2784.333       -2169.610          45.000          39.000  
  22196506.21128  17307349.20567  20820399.116    20820398.455    20820401.575  
      1775.450        1383.468          52.000          45.000  
  23702118.38028  18471211.55667  20233590.462    20233588.792    20233594.427  
       -86.065         -67.064          52.000          46.000  
  25574014.65327  19923661.42067  21925117.552    21925116.745    21925122.395  
     -2198.806       -1713.355          46.000          42.000  
  21204698.55127  16531716.57966  22954608.757    22954607.837    22954614.006  
      3065.248        2388.505          45.000          41.000  
  20843328.45527  16247638.66766  23180963.449    23180962.615    23180966.295  
      3487.994        2717.917          43.000          39.000  
  -2477415.64126  -1917371.02665  24612399.320    24612398.016    24612403.053  
      2348.991        1830.383          39.000          35.000  
  25668405.05828  19996226.35767  21295903.142    21295902.234    21295907.706  
     -2301.860       -1793.657          52.000          46.000  
 19  4  7 18 35 50.0000000  0 10G23G18G16G07G08G09G30G11G28G27
  26672983.12427  20775807.20066  23217862.059    23217861.146    23217863.212  
     -3309.238       -2578.627          44.000          39.000  
  -3853766.64027  -2961496.82466  23549662.861    23549662.227    23549667.777  
      3435.422        2676.952          43.000          38.000  
  26245538.06527  20442354.36366  23300889.490    23300887.947    23300891.289  
     -2785.435       -2170.469          44.000          39.000  
  22178774.98828  17293532.66367  20817024.993    20817024.309    20817027.423  
      1770.807        1379.850          52.000          45.000  
  23703012.69828  18471908.42967  20233760.641    20233758.974    20233764.620  
       -92.742         -72.266          52.000          46.000  
  25596028.61127  19940815.15367  21929306.698    21929305.861    21929311.526  
     -2203.846       -1717.283          46.000          42.000  
  21174058.51927  16507841.23966  22948778.149    22948777.225    22948783.415  
      3062.960        2386.722          46.000          41.000  
  20808461.47927  16220469.61066  23174328.418    23174327.623    23174331.374  
      3485.476        2715.955          44.000          39.000  
  -2500898.81026  -1935669.56566  24607930.678    24607929.401    24607934.362  
      2347.532        1829.246          38.000          36.000  
  25691449.89228  20014183.37067  21300288.425    21300287.504    21300292.991  
     -2307.062       -1797.711          51.000          46.000  
 19  4  7 18 36  0.0000000  0 10G23G18G16G07G08G09G30G11G28G27
  26706082.54327  20801598.93166  23224160.690    23224159.717    23224161.938  
     -3310.515       -2579.622          43.000          39.000  
  -3888113.06127  -2988260.26566  23543126.883    23543126.240    23543131.650  
      3434.446        2676.192          45.000          38.000  
  26273393.12027  20464059.57766  23306190.101    23306188.594    23306191.997  
     -2785.377       -2170.424          44.000          39.000  
  22161085.49728  17279748.64267  20813658.806    20813658.126    20813661.222  
      1767.357        1377.161          52.000          45.000  
  23703971.32628  18472655.41367  20233943.077    20233941.393    20233947.039  
       -98.408         -76.682          52.000          46.000  
  25618092.23127  19958007.57067  21933505.273    21933504.422    21933510.078  
     -2208.407       -1720.837          46.000          42.000  
  21143436.26627  16483979.76166  22942950.861    22942949.967    22942956.183  
      3061.805        2385.822          45.000          41.000  
  20773614.83827  16193316.39466  23167697.377    23167696.462    23167700.186  
      3483.989        2714.797          44.000          39.000  
  -2524369.63426  -1953958.48766  24603464.268    24603462.931    24603468.022  
      2347.287        1829.055          38.000          36.000  
  25714543.09928  20032178.07367  21304682.954    21304681.994    21304687.496  
     -2311.195       -1800.931          52.000          46.000  
 19  4  7 18 36 10.0000000  0 10G23G18G16G07G08G09G30G11G28G27
  26739197.90127  20827403.07366  23230462.425    23230461.416    23230463.707  
     -3312.075       -2580.838          43.000          39.000  
  -3922447.63727  -3015014.46266  23536593.271    23536592.534    23536597.985  
      3433.282        2675.285          43.000          38.000  
  26301251.23627  20485767.19366  23311491.325    23311489.812    23311493.205  
     -2785.848       -2170.791          45.000          39.000  
  22143433.83228  17265994.08467  20810299.778    20810299.124    20810302.237  
      1763.525        1374.175          52.000          45.000  
  23704989.92928  18473449.12967  20234136.922    20234135.229    20234140.872  
      -104.573         -81.485          52.000          46.000  
  25640201.29727  19975235.41267  21937712.496    21937711.660    21937717.312  
     -2212.970       -1724.392          47.000          42.000  
  21112827.91427  16460129.08966  22937126.376    22937125.383    22937131.573  
      3060.258        2384.617          46.000          41.000  
  20738784.61827  16166175.97366  23161069.399    23161068.488    23161072.143  
      3482.237        2713.431          45.000          39.000  
  -2547831.99926  -1972240.81666  24598999.406    24598998.204    24599003.399  
      2346.575        1828.500          40.000          36.000  
  25737680.57828  20050207.27367  21309085.879    21309084.922    21309090.428  
     -2315.671       -1804.419          52.000          46.000  
 19  4  7 18 36 20.0000000  0 10G23G18G16G07G08G09G30G11G28G27
  26772331.17427  20853221.18866  23236767.590    23236766.447    23236768.713  
     -3313.951       -2582.299          43.000          39.000  
  -3956768.12127  -3041757.68866  23530062.325    23530061.648    23530066.927  
      3431.788        2674.121          45.000          38.000  
  26329114.46227  20507478.79166  23316793.566    23316792.021    23316795.452  
     -2786.063       -2170.958          44.000          39.000  
  22125822.26228  17252270.78067  20806948.434    20806947.764    20806950.873  
      1759.724        1371.214          52.000          45.000  
  23706070.45328  18474291.09667  20234342.504    20234340.839    20234346.483  
      -110.737         -86.288          52.000          46.000  
  25662357.85827  19992500.25667  21941928.770    21941927.875    21941933.563  
     -2217.595       -1727.996          46.000          42.000  
  21082235.58727  16436290.93166  22931304.823    22931303.827    22931310.040  
      3059.001        2383.637          45.000          41.000  
  20703972.99927  16139050.04466  23154445.019    23154444.125    23154447.754  
      3480.792        2712.305          44.000          39.000  
  -2571283.83526  -1990514.95866  24594536.674    24594535.411    24594540.498  
      2344.680        1827.023          36.000          36.000  
  25760864.32528  20068272.53167  21313497.601    21313496.637    21313502.167  
     -2320.139       -1807.901          52.000          46.000  
 19  4  7 18 36 30.0000000  0 10G23G18G16G07G08G09G30G11G28G27
  26805479.71427  20879051.21566  23243075.378    23243074.345    23243076.713  
     -3316.180       -2584.036          43.000          38.000  
  -3991076.96727  -3068491.84266  23523533.650    23523532.833    23523538.151  
      3430.154        2672.847          45.000          39.000  
  26356980.30027  20529192.42966  23322096.214    23322094.651    23322098.110  
     -2786.904       -2171.613          44.000          39.000  
  22108248.22328  17238576.72267  20803604.202    20803603.527    20803606.640  
      1755.292        1367.760          52.000          45.000  
  23707210.66828  18475179.57467  20234559.477    20234557.806    20234563.440  
      -117.246         -91.361          52.000          46.000  
  25684559.26227  20009800.04667  21946153.534    21946152.675    21946158.335  
     -2222.636       -1731.924          47.000          42.000  
  21051656.83927  16412463.34666  22925485.728    22925484.894    22925491.122  
      3056.883        2381.987          46.000          41.000  
  20669177.55027  16111936.72266  23147823.589    23147822.727    23147826.381  
      3478.310        2710.371          43.000          39.000  
  -2594727.91226  -2008783.02465  24590075.383    24590074.102    24590079.243  
      2343.898        1826.414          38.000          35.000  
  25784091.69928  20086371.77867  21317917.610    21317916.642    21317922.183  
     -2325.185       -1811.832          52.000          46.000  
 19  4  7 18 36 40.0000000  0 10G23G18G16G07G08G09G30G11G28G27
  26838650.37427  20904898.47566  23249387.480    23249386.503    23249388.983  
     -3317.714       -2585.232          43.000          39.000  
  -4025367.14327  -3095211.45366  23517008.572    23517007.797    23517012.897  
      3428.862        2671.841          44.000          39.000  
  26384855.60927  20550913.43266  23327400.641    23327399.148    23327402.676  
     -2787.542       -2172.111          45.000          39.000  
  22090718.60228  17224917.28467  20800268.433    20800267.755    20800270.842  
      1751.303        1364.652          53.000          45.000  
  23708417.16928  18476119.70767  20234789.051    20234787.407    20234793.039  
      -123.365         -96.129          52.000          46.000  
  25706812.29627  20027140.07467  21950388.222    21950387.266    21950392.949  
     -2227.057       -1735.369          46.000          42.000  
  21021098.62427  16388651.74966  22919670.773    22919669.862    22919676.049  
      3055.168        2380.650          45.000          41.000  
  20634405.22627  16084841.43566  23141206.493    23141205.718    23141209.424  
      3476.657        2709.083          44.000          39.000  
  -2618157.21226  -2027039.58065  24585616.787    24585615.490    24585620.688  
      2342.460        1825.294          36.000          35.000  
  25807369.45928  20104510.29167  21322347.229    21322346.273    21322351.813  
     -2329.478       -1815.178          52.000          46.000  
 19  4  7 18 36 50.0000000  0 10G23G18G16G07G08G09G30G11G28G27
  26871833.19127  20930755.18566  23255701.953    23255701.019    23255703.606  
     -3319.419       -2586.560          44.000          39.000  
  -4059648.45927  -3121924.15266  23510484.880    23510484.231    23510489.376  
      3426.864        2670.284          45.000          39.000  
  26412730.56727  20572634.15266  23332705.133    23332703.599    23332707.088  
     -2788.102       -2172.547          45.000          39.000  
  22073223.81028  17211284.97767  20796939.301    20796938.601    20796941.712  
      1747.122        1361.394          52.000          45.000  
  23709680.19928  18477103.88367  20235029.410    20235027.741    20235033.377  
      -129.583        -100.974          53.000          46.000  
  25729107.13527  20044512.66767  21954630.743    21954629.819    21954635.563  
     -2232.120       -1739.314          47.000          42.000  
  20990551.24227  16364848.59366  22913857.771    22913856.861    22913863.025  
      3053.535        2379.378          45.000          41.000  
  20599646.45127  16057756.68966  23134592.108    23134591.330    23134594.997  
      3474.757        2707.603          44.000          39.000  
  -2641581.47626  -2045292.23965  24581159.195    24581158.121    24581163.365  
      2341.225        1824.331          38.000          35.000  
  25830687.78728  20122680.41667  21326784.528    21326783.585    21326789.145  
     -2334.469       -1819.067          52.000          46.000  
 19  4  7 18 37  0.0000000  0 10G23G18G16G07G08G09G30G11G28G27
  26905034.53027  20956626.33766  23262020.054    23262019.043    23262021.590  
     -3320.628       -2587.502          43.000          38.000  
  -4093914.02727  -3148624.58366  23503964.489    23503963.857    23503968.873  
      3426.036        2669.638          44.000          39.000  
  26440611.64427  20594359.65966  23338010.764    23338009.245    23338012.632  
     -2788.170       -2172.600          44.000          39.000  
  22055770.38328  17197684.90267  20793617.981    20793617.341    20793620.429  
      1743.682        1358.713          53.000          45.000  
  23711006.24928  18478137.17067  20235281.729    20235280.072    20235285.713  
      -135.310        -105.436          52.000          46.000  
  25751450.05527  20061922.73467  21958882.468    21958881.518    21958887.286  
     -2236.394       -1742.645          47.000          42.000  
  20960021.24727  16341059.00866  22908048.072    22908047.167    22908053.372  
      3052.448        2378.531          45.000          41.000  
  20564907.77027  16030687.60866  23127981.557    23127980.760    23127984.452  
      3473.111        2706.320          44.000          39.000  
  -2664994.25626  -2063535.92466  24576703.721    24576702.776    24576708.038  
      2341.161        1824.281          37.000          36.000  
  25854053.02128  20140887.08767  21331230.795    21331229.847    21331235.403  
     -2338.484       -1822.195          52.000          46.000  
 19  4  7 18 37 10.0000000  0 10G23G18G16G07G08G09G30G11G28G27
  26938253.12827  20982510.94866  23268341.397    23268340.317    23268342.886  
     -3322.800       -2589.195          43.000          38.000  
  -4128165.12227  -3175313.73666  23497446.741    23497446.079    23497451.161  
      3424.707        2668.603          45.000          39.000  
  26468497.65127  20616089.01766  23343317.204    23343315.725    23343319.183  
     -2788.684       -2173.001          44.000          39.000  
  22038357.28228  17184116.25467  20790304.410    20790303.762    20790306.824  
      1739.591        1355.525          53.000          45.000  
  23712394.28328  18479218.75167  20235545.826    20235544.211    20235549.843  
      -141.628        -110.359          52.000          46.000  
  25773839.89227  20079369.34967  21963143.055    21963142.131    21963147.961  
     -2241.466       -1746.597          47.000          42.000  
  20929507.54527  16317282.10866  22902241.540    22902240.571    22902246.789  
      3050.965        2377.375          46.000          41.000  
  20530188.10527  16003633.33166  23121374.615    23121373.811    23121377.464  
      3471.155        2704.796          44.000          39.000  
  -2688396.71426  -2081771.53466  24572250.394    24572249.362    24572254.796  
      2340.235        1823.560          38.000          36.000  
  25877463.92428  20159129.34467  21335685.737    21335684.787    21335690.360  
     -2343.202       -1825.872          51.000          46.000  
 19  4  7 18 37 20.0000000  0 10G23G18G16G07G08G09G30G11G28G27
  26971487.10827  21008407.54166  23274665.632    23274664.501    23274667.184  
     -3324.783       -2590.740          43.000          38.000  
  -4162403.36527  -3201992.86866  23490931.419    23490930.673    23490935.764  
      3422.743        2667.072          44.000          39.000  
  26496386.79727  20637820.80866  23348624.265    23348622.800    23348626.231  
     -2789.720       -2173.808          43.000          39.000  
  22020982.81628  17170577.70867  20786998.242    20786997.511    20787000.568  
      1734.894        1351.865          53.000          45.000  
  23713842.26628  18480347.05367  20235821.344    20235819.765    20235825.378  
      -148.443        -115.670          52.000          46.000  
  25796274.71127  20096851.01267  21967412.320    21967411.355    21967417.163  
     -2246.461       -1750.489          47.000          42.000  
  20899008.48127  16293516.60866  22896437.685    22896436.793    22896442.993  
      3048.533        2375.480          45.000          41.000  
  20495485.77527  15976592.55566  23114770.970    23114770.163    23114773.806  
      3468.677        2702.865          44.000          39.000  
  -2711790.59826  -2100000.50866  24567798.756    24567797.718    24567802.929  
      2338.358        1822.097          39.000          36.000  
  25900918.59828  20177405.71267  21340149.002    21340148.049    21340153.644  
     -2348.214       -1829.777          52.000          46.000  
 19  4  7 18 37 30.0000000  0 10G23G18G16G07G08G09G30G11G28G27
  27004740.41127  21034319.18566  23280993.446    23280992.396    23280995.111  
     -3324.748       -2590.713          43.000          38.000  
  -4196624.35627  -3228658.56166  23484419.428    23484418.768    23484423.740  
      3421.963        2666.465          45.000          39.000  
  26524283.24627  20659558.29166  23353932.691    23353931.376    23353934.801  
     -2789.330       -2173.504          44.000          39.000  
  22003651.21128  17157072.56367  20783700.096    20783699.423    20783702.472  
      1731.843        1349.488          53.000          45.000  
  23715354.26028  18481525.22767  20236109.089    20236107.483    20236113.089  
      -153.543        -119.644          52.000          46.000  
  25818758.55127  20114370.89167  21971690.912    21971689.910    21971695.700  
     -2249.778       -1753.074          47.000          42.000  
  20868528.20527  16269765.73966  22890637.438    22890636.585    22890642.759  
      3047.890        2374.979          45.000          41.000  
  20460805.07627  15949568.65266  23108171.454    23108170.566    23108174.314  
      3467.874        2702.239          44.000          39.000  
  -2735171.79426  -2118219.58366  24563349.484    24563348.378    24563353.677  
      2338.624        1822.304          38.000          36.000  
  25924421.08928  20195719.33667  21344621.395    21344620.429    21344626.017  
     -2351.710       -1832.501          52.000          46.000  
 19  4  7 18 37 40.0000000  0 10G23G18G16G07G08G09G30G11G28G27
  27038007.90527  21060241.89066  23287323.945    23287322.971    23287325.764  
     -3327.895       -2593.165          42.000          38.000  
  -4230833.34927  -3255314.89966  23477909.719    23477908.932    23477913.993  
      3420.244        2665.125          45.000          39.000  
  26552181.73427  20681297.35466  23359241.617    23359240.284    23359243.751  
     -2789.928       -2173.970          44.000          39.000  
  21986357.33428  17143596.81567  20780409.177    20780408.496    20780411.551  
      1727.630        1346.205          53.000          45.000  
  23716925.19828  18482749.33767  20236408.053    20236406.425    20236412.034  
      -159.997        -124.673          52.000          46.000  
  25841286.18727  20131924.87867  21975977.749    21975976.777    21975982.547  
     -2254.954       -1757.107          46.000          42.000  
  20838061.65327  16246025.58066  22884839.921    22884838.971    22884845.212  
      3045.999        2373.506          46.000          41.000  
  20426140.94727  15922557.66266  23101575.049    23101574.182    23101577.953  
      3465.672        2700.524          44.000          39.000  
  -2758545.38826  -2136432.75166  24558901.633    24558900.602    24558905.739  
      2336.976        1821.020          40.000          36.000  
  25947966.13228  20214066.11967  21349101.840    21349100.900    21349106.494  
     -2356.491       -1836.227          51.000          46.000  
 19  4  7 18 37 50.0000000  0 10G23G18G16G07G08G09G30G11G28G27
  27071291.64827  21086177.24666  23293657.653    23293656.590    23293659.412  
     -3329.360       -2594.306          43.000          38.000  
  -4265027.74027  -3281959.87066  23471402.733    23471401.970    23471406.995  
      3418.440        2663.719          43.000          39.000  
  26580084.53927  20703039.79466  23364551.424    23364549.997    23364553.414  
     -2790.732       -2174.596          43.000          39.000  
  21969103.64828  17130152.38567  20777125.908    20777125.237    20777128.302  
      1723.139        1342.706          53.000          45.000  
  23718557.42428  18484021.19967  20236718.623    20236717.012    20236722.646  
      -166.617        -129.831          52.000          46.000  
  25863859.79227  20149514.70167  21980273.429    21980272.411    21980278.167  
     -2259.907       -1760.966          47.000          42.000  
  20807611.19827  16222297.95466  22879045.478    22879044.463    22879050.647  
      3043.942        2371.903          46.000          41.000  
  20391495.63827  15895561.33166  23094982.282    23094981.478    23094985.232  
      3463.262        2698.646          44.000          39.000  
  -2781909.25926  -2154638.34066  24554455.716    24554454.605    24554459.735  
      2335.471        1819.848          39.000          37.000  
  25971555.95728  20232447.79767  21353590.865    21353589.911    21353595.488  
     -2361.426       -1840.072          51.000          46.000  
 19  4  7 18 38  0.0000000  0 10G23G18G16G07G08G09G30G11G28G27
  27104594.26527  21112127.31966  23299994.855    23299993.873    23299996.724  
     -3330.919       -2595.521          42.000          38.000  
  -4299204.64527  -3308591.20066  23464899.063    23464898.341    23464903.397  
      3417.001        2662.598          45.000          39.000  
  26607994.36227  20724787.69266  23369862.509    23369861.054    23369864.442  
     -2791.220       -2174.977          43.000          39.000  
  21951892.81228  17116741.34667  20773850.810    20773850.139    20773853.184  
      1719.204        1339.639          53.000          45.000  
  23720253.70328  18485342.98167  20237041.411    20237039.794    20237045.431  
      -172.594        -134.489          52.000          46.000  
  25886482.02127  20167142.40567  21984578.274    21984577.266    21984583.065  
     -2264.290       -1764.382          46.000          42.000  
  20777179.66827  16198585.08566  22873254.463    22873253.534    22873259.708  
      3042.575        2370.838          45.000          41.000  
  20356872.09727  15868581.95766  23088393.620    23088392.751    23088396.517  
      3461.251        2697.079          44.000          39.000  
  -2805260.56127  -2172834.12166  24550012.010    24550010.954    24550016.133  
      2334.932        1819.428          42.000          37.000  
  25995193.15728  20250866.39267  21358088.850    21358087.920    21358093.499  
     -2365.691       -1843.396          51.000          46.000  
 19  4  7 18 38 10.0000000  0 10G23G18G16G07G08G09G30G11G28G27
  27137902.42327  21138081.70466  23306333.122    23306332.181    23306335.118  
     -3332.392       -2596.669          44.000          38.000  
  -4333377.31727  -3335219.25066  23458396.228    23458395.519    23458400.477  
      3415.642        2661.539          44.000          39.000  
  26635897.94627  20746530.73466  23375172.383    23375170.937    23375174.350  
     -2791.273       -2175.018          44.000          39.000  
  21934711.70028  17103353.46467  20770581.342    20770580.682    20770583.718  
      1715.331        1336.622          52.000          45.000  
  23722000.44628  18486704.07567  20237373.791    20237372.191    20237377.810  
      -178.526        -139.111          52.000          46.000  
  25909139.49427  20184797.56767  21988889.840    21988888.818    21988894.637  
     -2268.909       -1767.981          47.000          42.000  
  20746753.83427  16174876.64066  22867464.569    22867463.699    22867469.835  
      3040.857        2369.499          46.000          41.000  
  20322257.06527  15841609.21466  23081806.567    23081805.787    23081809.548  
      3459.599        2695.791          44.000          39.000  
  -2828612.70226  -2191030.57266  24545568.316    24545567.275    24545572.258  
      2334.345        1818.970          40.000          37.000  
  26018864.39528  20269311.50867  21362593.336    21362592.405    21362597.983  
     -2370.186       -1846.898          51.000          46.000  
 19  4  7 18 38 20.0000000  0 10G23G18G16G07G08G09G30G11G28G27
  27171237.60027  21164057.14166  23312676.706    23312675.623    23312678.576  
     -3334.402       -2598.235          43.000          38.000  
  -4367524.04727  -3361827.08966  23451898.398    23451897.716    23451902.634  
      3414.022        2660.277          44.000          39.000  
  26663816.83427  20768285.69866  23380485.168    23380483.762    23380487.172  
     -2791.786       -2175.418          44.000          39.000  
  21917582.05528  17090005.69267  20767321.676    20767321.030    20767324.051  
      1710.935        1333.196          53.000          45.000  
  23723819.31728  18488121.38067  20237719.914    20237718.306    20237723.934  
      -185.017        -144.169          52.000          46.000  
  25931853.65727  20202496.90967  21993212.156    21993211.220    21993217.020  
     -2273.718       -1771.728          47.000          42.000  
  20716355.38227  16151189.54166  22861679.896    22861679.049    22861685.211  
      3039.175        2368.188          45.000          41.000  
  20287672.35027  15814660.09866  23075225.295    23075224.471    23075228.236  
      3457.406        2694.083          44.000          39.000  
  -2851944.03626  -2209210.79266  24541128.326    24541127.369    24541132.452  
      2332.654        1817.652          40.000          37.000  
  26042591.13528  20287799.87667  21367108.382    21367107.441    21367113.018  
     -2374.860       -1850.540          52.000          46.000  
 19  4  7 18 38 30.0000000  0 10G23G18G16G07G08G09G30G11G28G27
  27204586.93326  21190043.62066  23319022.784    23319021.673    23319024.658  
     -3335.861       -2599.372          41.000          38.000  
  -4401657.44627  -3388424.53766  23445403.045    23445402.287    23445407.182  
      3412.933        2659.428          45.000          39.000  
  26691738.30327  20790042.67266  23385798.423    23385797.053    23385800.470  
     -2792.382       -2175.882          44.000          39.000  
  21900491.17028  17076688.12367  20764069.416    20764068.754    20764071.768  
      1706.976        1330.111          53.000          45.000  
  23725697.44028  18489584.85067  20238077.307    20238075.710    20238081.306  
      -190.842        -148.708          52.000          46.000  
  25954611.69927  20220230.44267  21997542.808    21997541.939    21997547.711  
     -2277.889       -1774.978          46.000          42.000  
  20685971.61827  16127513.88966  22855898.083    22855897.203    22855903.401  
      3037.568        2366.936          46.000          41.000  
  20253105.26627  15787724.72666  23068647.341    23068646.595    23068650.331  
      3455.648        2692.713          45.000          39.000  
  -2875267.35726  -2227384.78966  24536690.158    24536689.119    24536694.165  
      2331.888        1817.056          40.000          37.000  
  26066360.52128  20306321.46867  21371631.555    21371630.621    21371636.189  
     -2379.110       -1853.852          52.000          46.000  
 19  4  7 18 38 40.0000000  0 10G23G18G16G07G08G09G30G11G28G27
  27237952.26027  21216042.54966  23325371.863    23325370.865    23325373.967  
     -3337.381       -2600.557          42.000          38.000  
  -4435775.39927  -3415009.94666  23438910.590    23438909.862    23438914.766  
      3410.971        2657.899          44.000          39.000  
  26719664.28427  20811803.17366  23391112.555    23391111.169    23391114.630  
     -2792.871       -2176.263          44.000          39.000  
  21883441.09228  17063402.34167  20760824.923    20760824.250    20760827.242  
      1702.736        1326.807          53.000          45.000  
  23727636.96528  18491096.17067  20238446.396    20238444.787    20238450.391  
      -197.133        -153.610          52.000          46.000  
  25977415.48827  20237999.63567  22001882.259    22001881.352    22001887.165  
     -2282.517       -1778.585          46.000          42.000  
  20655604.61727  16103851.29566  22850119.510    22850118.547    22850124.716  
      3035.706        2365.485          45.000          41.000  
  20218557.89727  15760804.70966  23062073.237    23062072.472    23062076.197  
      3453.532        2691.064          45.000          39.000  
  -2898580.65426  -2245550.96566  24532253.763    24532252.747    24532257.808  
      2330.647        1816.089          40.000          37.000  
  26090174.47628  20324877.79267  21376163.248    21376162.277    21376167.828  
     -2383.585       -1857.339          51.000          46.000  
 19  4  7 18 38 50.0000000  0 10G23G18G16G07G08G09G30G11G28G27
  27271333.85527  21242054.16366  23331724.186    23331723.240    23331726.323  
     -3338.507       -2601.434          43.000          38.000  
  -4469877.47927  -3441582.97866  23432421.244    23432420.453    23432425.407  
      3409.838        2657.017          43.000          39.000  
  26747595.13127  20833567.45866  23396427.594    23396426.194    23396429.722  
     -2793.114       -2176.452          44.000          39.000  
  21866432.16428  17050148.63567  20757588.247    20757587.551    20757590.540  
      1699.225        1324.071          53.000          45.000  
  23729637.98428  18492655.40567  20238827.190    20238825.553    20238831.156  
      -202.982        -158.168          52.000          46.000  
  26000265.33827  20255804.69267  22006230.460    22006229.561    22006235.380  
     -2287.107       -1782.161          47.000          43.000  
  20625254.83027  16080202.11466  22844343.996    22844343.153    22844349.337  
      3034.503        2364.548          45.000          41.000  
  20184030.69627  15733900.39966  23055502.919    23055502.186    23055505.855  
      3452.148        2689.985          44.000          39.000  
  -2921883.53526  -2263709.01066  24527819.354    24527818.228    24527823.398  
      2329.982        1815.570          41.000          37.000  
  26114033.24228  20343469.03867  21380703.361    21380702.444    21380708.007  
     -2387.765       -1860.596          52.000          46.000  
 19  4  7 18 39  0.0000000  0 10G23G18G16G07G08G09G30G11G28G27
  27304731.24827  21268078.08766  23338079.691    23338078.627    23338081.612  
     -3340.366       -2602.883          43.000          39.000  
  -4503963.86527  -3468143.76166  23425934.742    23425933.962    23425938.941  
      3408.018        2655.598          44.000          39.000  
  26775530.39627  20855335.18766  23401743.572    23401742.183    23401745.688  
     -2793.587       -2176.821          44.000          39.000  
  21849464.19728  17036926.83967  20754359.325    20754358.650    20754361.638  
      1694.799        1320.623          53.000          45.000  
  23731700.33728  18494262.43567  20239219.616    20239218.016    20239223.617  
      -209.118        -162.949          52.000          46.000  
  26023160.68627  20273645.22367  22010587.388    22010586.390    22010592.202  
     -2291.741       -1785.772          46.000          42.000  
  20594921.94227  16056566.10467  22838571.883    22838571.021    22838577.186  
      3032.381        2362.894          46.000          42.000  
  20149523.47627  15707011.67466  23048936.373    23048935.668    23048939.305  
      3449.618        2688.014          45.000          39.000  
  -2945176.38927  -2281859.25766  24523386.900    24523385.777    24523390.907  
      2328.444        1814.372          42.000          38.000  
  26137936.34328  20362094.82667  21385251.968    21385251.061    21385256.623  
     -2392.382       -1864.194          52.000          46.000  
 19  4  7 18 39 10.0000000  0 10G23G18G16G07G08G09G30G11G28G27
  27338142.13927  21294112.53366  23344437.556    23344436.467    23344439.581  
     -3342.099       -2604.233          42.000          39.000  
  -4538036.70727  -3494694.03666  23419450.925    23419450.124    23419455.060  
      3406.146        2654.140          43.000          39.000  
  26803468.09127  20877104.80266  23407060.041    23407058.539    23407062.066  
     -2794.045       -2177.178          44.000          39.000  
  21832535.09128  17023735.33067  20751137.797    20751137.155    20751140.134  
      1690.870        1317.561          53.000          45.000  
  23733821.69328  18495915.44267  20239623.312    20239621.694    20239627.307  
      -215.274        -167.746          52.000          46.000  
  26046099.29527  20291519.44967  22014952.473    22014951.497    22014957.286  
     -2296.282       -1789.311          47.000          42.000  
  20564603.81927  16032941.60467  22832802.576    22832801.708    22832807.854  
      3031.107        2361.901          46.000          42.000  
  20115034.06327  15680136.81966  23042373.319    23042372.552    23042376.175  
      3447.911        2686.684          45.000          39.000  
  -2968461.45426  -2300003.43666  24518955.857    24518954.766    24518959.929  
      2327.984        1814.014          41.000          37.000  
  26161881.50628  20380753.39167  21389808.618    21389807.672    21389813.228  
     -2396.658       -1867.526          52.000          46.000  
 19  4  7 18 39 20.0000000  0 10G23G18G16G07G08G09G30G11G28G27
  27371569.27527  21320159.62266  23350798.516    23350797.449    23350800.613  
     -3344.350       -2605.987          43.000          38.000  
  -4572092.92927  -3521231.32366  23412970.296    23412969.486    23412974.439  
      3404.621        2652.951          44.000          39.000  
  26831410.85027  20898878.36966  23412377.339    23412375.930    23412379.412  
     -2794.679       -2177.672          43.000          39.000  
  21815647.92028  17010576.49267  20747924.296    20747923.635    20747926.618  
      1686.159        1313.890          53.000          45.000  
  23736004.80628  18497616.56367  20240038.747    20240037.139    20240042.727  
      -221.869        -172.885          52.000          46.000  
  26069084.01027  20309429.62167  22019326.282    22019325.339    22019331.142  
     -2301.236       -1793.171          47.000          42.000  
  20534303.55127  16009331.00067  22827036.673    22827035.793    22827041.898  
      3028.857        2360.148          46.000          42.000  
  20080565.50827  15653278.21566  23035814.176    23035813.383    23035817.030  
      3445.187        2684.561          44.000          40.000  
  -2991735.69427  -2318139.17166  24514526.869    24514525.854    24514531.069  
      2326.431        1812.803          42.000          38.000  
  26185871.56928  20399446.94467  21394373.752    21394372.832    21394378.378  
     -2401.652       -1871.417          51.000          46.000  
 19  4  7 18 39 30.0000000  0 10G23G18G16G07G08G09G30G11G28G27
  27405013.11727  21346219.73166  23357162.645    23357161.641    23357164.769  
     -3344.666       -2606.233          43.000          38.000  
  -4606131.70627  -3547755.02766  23406492.919    23406492.072    23406497.045  
      3403.463        2652.049          45.000          39.000  
  26859359.24427  20920656.32866  23417695.730    23417694.408    23417697.863  
     -2794.492       -2177.526          44.000          39.000  
  21798803.22628  16997450.76067  20744718.858    20744718.229    20744721.160  
      1682.753        1311.236          53.000          45.000  
  23738250.39428  18499366.37867  20240466.074    20240464.446    20240470.043  
      -227.232        -177.064          52.000          46.000  
  26092115.27327  20327376.04167  22023708.965    22023708.053    22023713.838  
     -2304.974       -1796.084          46.000          42.000  
  20504021.68327  15985734.75667  22821274.203    22821273.312    22821279.420  
      3027.675        2359.227          46.000          42.000  
  20046118.46627  15626436.37566  23029259.003    23029258.320    23029262.009  
      3444.295        2683.866          45.000          40.000  
  -3014998.60927  -2336266.08766  24510100.182    24510099.060    24510104.259  
      2326.241        1812.655          42.000          38.000  
  26209906.98828  20418175.83667  21398947.517    21398946.632    21398952.168  
     -2405.434       -1874.364          52.000          46.000  
 19  4  7 18 39 40.0000000  0 10G23G18G16G07G08G09G30G11G28G27
  27438470.79327  21372290.62466  23363529.512    23363528.484    23363531.552  
     -3346.256       -2607.472          44.000          38.000  
  -4640155.86027  -3574267.34566  23400018.342    23400017.553    23400022.464  
      3401.895        2650.827          43.000          39.000  
  26887310.36527  20942436.40966  23423014.698    23423013.337    23423016.770  
     -2795.032       -2177.947          44.000          39.000  
  21781998.18828  16984355.92567  20741520.973    20741520.340    20741523.277  
      1678.703        1308.080          53.000          46.000  
  23740555.41928  18501162.50167  20240904.664    20240903.067    20240908.677  
      -233.350        -181.831          52.000          46.000  
  26115190.08527  20345356.41667  22028099.948    22028099.032    22028104.859  
     -2309.483       -1799.597          46.000          42.000  
  20473755.47427  15962150.70267  22815514.758    22815513.864    22815520.000  
      3025.948        2357.882          47.000          42.000  
  20011690.20827  15599609.16966  23022707.501    23022706.847    23022710.512  
      3441.987        2682.068          44.000          40.000  
  -3038253.20327  -2354386.51366  24505674.937    24505673.909    24505679.001  
      2324.964        1811.660          43.000          38.000  
  26233984.77028  20436937.74267  21403529.399    21403528.484    21403534.028  
     -2409.725       -1877.708          51.000          46.000  
 19  4  7 18 39 50.0000000  0 10G23G18G16G07G08G09G30G11G28G27
  27471943.72527  21398373.40366  23369899.295    23369898.128    23369901.173  
     -3348.134       -2608.936          44.000          38.000  
  -4674163.64027  -3600766.90466  23393546.785    23393546.023    23393550.929  
      3399.501        2648.962          43.000          39.000  
  26915265.88327  20964219.92066  23428334.443    23428333.102    23428336.552  
     -2796.305       -2178.939          44.000          39.000  
  21765234.60928  16971293.39767  20738330.974    20738330.324    20738333.263  
      1673.988        1304.406          53.000          46.000  
  23742921.62328  18503006.29767  20241354.931    20241353.349    20241358.955  
      -240.073        -187.070          52.000          46.000  
  26138310.01027  20363371.92967  22032499.472    22032498.619    22032504.452  
     -2314.509       -1803.514          46.000          42.000  
  20443506.60927  15938580.16767  22809758.571    22809757.699    22809763.828  
      3023.780        2356.192          47.000          42.000  
  19977282.49727  15572797.97666  23016160.024    23016159.232    23016162.877  
      3439.682        2680.272          45.000          40.000  
  -3061497.72327  -2372499.09066  24501251.671    24501250.561    24501255.657  
      2323.580        1810.582          42.000          38.000  
  26258106.47528  20455733.87167  21408119.647    21408118.699    21408124.231  
     -2414.808       -1881.669          51.000          46.000  
 19  4  7 18 40  0.0000000  0 10G23G18G16G07G08G09G30G11G28G27
  27505433.08227  21424468.98966  23376272.169    23376271.059    23376274.031  
     -3349.585       -2610.066          43.000          39.000  
  -4708153.74127  -3627252.68066  23387078.595    23387077.842    23387082.800  
      3398.245        2647.983          43.000          39.000  
  26943226.96027  20986007.76266  23433655.251    23433653.902    23433657.372  
     -2796.444       -2179.047          43.000          39.000  
  21748513.70728  16958264.12267  20735149.113    20735148.458    20735151.385  
      1669.905        1301.225          53.000          45.000  
  23745349.96228  18504898.51267  20241817.057    20241815.452    20241821.042  
      -246.012        -191.698          52.000          46.000  
  26161476.15227  20381423.46167  22036907.860    22036906.976    22036912.825  
     -2318.894       -1806.930          46.000          42.000  
  20413276.40827  15915024.17167  22804006.022    22804005.049    22804011.190  
      3021.928        2354.749          46.000          42.000  
  19942896.60927  15546003.78666  23009616.531    23009615.798    23009619.394  
      3437.482        2678.557          45.000          39.000  
  -3084730.92727  -2390602.84266  24496830.410    24496829.377    24496834.561  
      2322.986        1810.119          43.000          38.000  
  26282273.22728  20474565.09867  21412718.396    21412717.500    21412723.011  
     -2418.969       -1884.911          51.000          46.000  
 19  4  7 18 40 10.0000000  0 10G23G18G16G07G08G09G30G11G28G27
  27538935.70527  21450574.91366  23382647.521    23382646.507    23382649.393  
     -3350.716       -2610.948          44.000          39.000  
  -4742128.96827  -3653726.88066  23380613.326    23380612.558    23380617.464  
      3396.684        2646.767          42.000          39.000  
  26971190.60727  21007797.59866  23438976.539    23438975.211    23438978.709  
     -2796.610       -2179.177          44.000          39.000  
  21731832.59328  16945265.85467  20731974.769    20731974.159    20731977.083  
      1666.100        1298.260          53.000          46.000  
  23747837.49828  18506836.85467  20242290.425    20242288.801    20242294.395  
      -251.762        -196.178          52.000          46.000  
  26184685.39427  20399508.56967  22041324.493    22041323.552    22041329.425  
     -2322.836       -1810.002          47.000          42.000  
  20383061.90527  15891480.40867  22798256.381    22798255.448    22798261.546  
      3020.809        2353.877          47.000          42.000  
  19908529.69027  15519224.38166  23003076.761    23003076.013    23003079.557  
      3435.857        2677.291          45.000          40.000  
  -3107955.81727  -2408700.14966  24492410.943    24492409.915    24492414.979  
      2322.327        1809.605          43.000          38.000  
  26306481.88528  20493428.98967  21417325.152    21417324.236    21417329.766  
     -2423.008       -1888.058          51.000          46.000  
 19  4  7 18 40 20.0000000  0 10G23G18G16G07G08G09G30G11G28G27
  27572454.00627  21476693.06466  23389025.840    23389024.834    23389027.768  
     -3352.567       -2612.390          44.000          39.000  
  -4776086.87327  -3680187.55366  23374151.324    23374150.584    23374155.505  
      3394.926        2645.397          44.000          39.000  
  26999159.30627  21029591.37466  23444298.877    23444297.467    23444300.951  
     -2797.204       -2179.639          44.000          39.000  
  21715193.81228  16932300.57867  20728808.484    20728807.910    20728810.806  
      1661.747        1294.868          53.000          46.000  
  23750386.67228  18508823.22367  20242775.484    20242773.900    20242779.487  
      -258.053        -201.080          52.000          46.000  
  26207940.14727  20417629.15567  22045749.734    22045748.789    22045754.634  
     -2327.741       -1813.824          46.000          42.000  
  20352865.68727  15867950.89667  22792510.163    22792509.292    22792515.435  
      3018.698        2352.232          46.000          42.000  
  19874184.30827  15492461.75166  22996541.045    22996540.303    22996543.838  
      3433.514        2675.465          45.000          40.000  
  -3131170.01227  -2426789.09566  24487993.290    24487992.292    24487997.411  
      2321.187        1808.717          43.000          38.000  
  26330734.86528  20512327.40567  21421940.361    21421939.449    21421944.917  
     -2427.517       -1891.572          51.000          46.000  
 19  4  7 18 40 30.0000000  0 10G23G18G16G07G08G09G30G11G28G27
  27605986.81527  21502822.50466  23395407.014    23395405.926    23395408.892  
     -3354.079       -2613.568          43.000          39.000  
  -4810028.23427  -3706635.35666  23367692.416    23367691.611    23367696.661  
      3393.097        2643.972          42.000          39.000  
  27027132.06227  21051388.31966  23449621.884    23449620.505    23449624.000  
     -2797.509       -2179.877          44.000          39.000  
  21698596.40728  16919367.53367  20725650.096    20725649.531    20725652.405  
      1657.606        1291.641          53.000          46.000  
  23752996.44928  18510856.81867  20243272.131    20243270.523    20243276.108  
      -264.268        -205.923          52.000          46.000  
  26231239.22127  20435784.26367  22050183.356    22050182.439    22050188.312  
     -2331.993       -1817.137          46.000          42.000  
  20322686.76727  15844434.85367  22786767.264    22786766.425    22786772.549  
      3017.131        2351.011          46.000          42.000  
  19839859.32327  15465715.02966  22990009.195    22990008.472    22990012.030  
      3431.716        2674.064          45.000          40.000  
  -3154374.57227  -2444870.55866  24483577.681    24483576.661    24483581.794  
      2319.914        1807.725          43.000          38.000  
  26355030.98228  20531259.44467  21426563.705    21426562.834    21426568.315  
     -2431.824       -1894.928          51.000          46.000  
 19  4  7 18 40 40.0000000  0 10G23G18G16G07G08G09G30G11G28G27
  27639532.72027  21528962.15866  23401790.627    23401789.495    23401792.460  
     -3355.327       -2614.541          43.000          39.000  
  -4843954.17326  -3733071.13866  23361236.380    23361235.637    23361240.784  
      3391.969        2643.093          41.000          39.000  
  27055107.52827  21073187.36866  23454945.437    23454944.152    23454947.635  
     -2798.022       -2180.277          44.000          39.000  
  21682039.25628  16906465.87667  20722499.375    20722498.828    20722501.688  
      1653.728        1288.619          53.000          46.000  
  23755665.69728  18512936.75067  20243780.066    20243778.444    20243784.043  
      -269.852        -210.274          52.000          46.000  
  26254581.32627  20453972.91367  22054625.228    22054624.297    22054630.193  
     -2336.236       -1820.444          47.000          42.000  
  20292524.04227  15820931.45267  22781027.443    22781026.669    22781032.773  
      3015.497        2349.738          47.000          42.000  
  19805553.86327  15438983.51966  22983481.077    22983480.355    22983483.922  
      3429.503        2672.340          45.000          40.000  
  -3177570.73627  -2462945.45966  24479163.573    24479162.546    24479167.656  
      2318.982        1806.999          44.000          38.000  
  26379368.99028  20550224.12067  21431195.052    21431194.177    21431199.666  
     -2435.811       -1898.035          51.000          46.000  
 19  4  7 18 40 50.0000000  0 10G23G18G16G07G08G09G30G11G28G27
  27673094.04727  21555113.81966  23408177.130    23408176.034    23408179.049  
     -3356.715       -2615.622          42.000          39.000  
  -4877862.11527  -3759492.88266  23354783.850    23354783.083    23354788.302  
      3389.302        2641.015          43.000          38.000  
  27083088.01727  21094990.34466  23460269.945    23460268.579    23460272.150  
     -2798.475       -2180.630          43.000          39.000  
  21665524.92028  16893597.56367  20719356.831    20719356.256    20719359.118  
      1648.985        1284.923          53.000          46.000  
  23758396.46628  18515064.62467  20244299.705    20244298.081    20244303.685  
      -276.261        -215.268          52.000          46.000  
  26277968.82327  20472196.92967  22059075.724    22059074.784    22059080.697  
     -2341.368       -1824.443          46.000          42.000  
  20262380.02327  15797442.60067  22775291.302    22775290.453    22775296.552  
      3013.249        2347.986          47.000          42.000  
  19771270.40327  15412269.14266  22976957.150    22976956.430    22976959.954  
      3426.874        2670.291          44.000          40.000  
  -3200755.91627  -2481011.80366  24474751.635    24474750.527    24474755.671  
      2317.764        1806.050          43.000          38.000  
  26403751.19428  20569223.23367  21435834.823    21435833.960    21435839.453  
     -2440.595       -1901.762          51.000          46.000  
 19  4  7 18 41  0.0000000  0 10G23G18G16G07G08G09G30G11G28G27
  27706670.26627  21581277.07366  23414566.570    23414565.427    23414568.509  
     -3357.942       -2616.578          44.000          39.000  
  -4911752.46127  -3785900.92866  23348334.626    23348333.814    23348339.071  
      3388.284        2640.221          43.000          38.000  
  27111073.12627  21116796.90766  23465595.319    23465593.975    23465597.616  
     -2798.235       -2180.443          44.000          39.000  
  21649052.99228  16880762.29567  20716222.321    20716221.773    20716224.619  
      1645.508        1282.214          53.000          46.000  
  23761188.32828  18517240.10467  20244830.958    20244829.349    20244834.953  
      -281.773        -219.563          52.000          46.000  
  26301401.09127  20490455.83767  22063534.712    22063533.775    22063539.732  
     -2345.246       -1827.464          46.000          42.000  
  20232254.30427  15773968.03067  22769558.548    22769557.715    22769563.828  
      3011.823        2346.875          47.000          42.000  
  19737008.60427  15385571.64866  22970437.314    22970436.577    22970440.071  
      3425.392        2669.137          45.000          40.000  
  -3223930.70327  -2499070.06266  24470341.576    24470340.455    24470345.572  
      2317.451        1805.806          43.000          38.000  
  26428177.02728  20588256.34367  21440482.912    21440482.056    21440487.534  
     -2444.286       -1904.638          51.000          46.000  
 19  4  7 18 41 10.0000000  0 10G23G18G16G07G08G09G30G11G28G27
  27740261.11327  21607451.73466  23420958.645    23420957.545    23420960.562  
     -3360.030       -2618.205          44.000          39.000  
  -4945625.13827  -3812295.21066  23341888.971    23341888.077    23341893.331  
      3386.036        2638.470          43.000          38.000  
  27139062.85227  21138607.07366  23470921.562    23470920.225    23470923.897  
     -2799.405       -2181.354          43.000          39.000  
  21632623.42228  16867960.03667  20713095.917    20713095.345    20713098.150  
      1640.609        1278.397          53.000          46.000  
  23764041.40028  18519463.27467  20245373.890    20245372.283    20245377.877  
      -288.597        -224.881          52.000          46.000  
  26324877.98827  20508749.50667  22068002.157    22068001.274    22068007.289  
     -2350.188       -1831.315          45.000          42.000  
  20202146.84227  15750507.67067  22763829.277    22763828.461    22763834.545  
      3009.601        2345.144          46.000          42.000  
  19702768.58227  15358891.13566  22963921.714    22963920.949    22963924.414  
      3422.328        2666.749          45.000          40.000  
  -3247095.04927  -2517120.18666  24465933.442    24465932.409    24465937.475  
      2315.747        1804.478          43.000          38.000  
  26452646.29028  20607323.30067  21445139.276    21445138.423    21445143.875  
     -2449.319       -1908.560          51.000          46.000  
 19  4  7 18 41 20.0000000  0 10G23G18G16G07G08G09G30G11G28G27
  27773864.66127  21633636.29666  23427353.187    23427352.156    23427355.042  
     -3360.984       -2618.949          43.000          38.000  
  -4979481.94027  -3838677.12166  23335446.270    23335445.301    23335450.513  
      3384.923        2637.602          42.000          38.000  
  27167055.20527  21160419.28066  23476248.223    23476246.968    23476250.716  
     -2799.465       -2181.401          44.000          39.000  
  21616234.38028  16855189.35667  20709977.207    20709976.612    20709979.415  
      1636.898        1275.505          53.000          46.000  
  23766953.42928  18521732.38967  20245928.034    20245926.421    20245931.998  
      -294.134        -229.195          52.000          46.000  
  26348397.41327  20527076.32167  22072477.769    22072476.881    22072482.879  
     -2353.906       -1834.212          46.000          42.000  
  20172055.82327  15727060.13167  22758103.136    22758102.320    22758108.420  
      3008.243        2344.085          47.000          42.000  
  19668548.42727  15332226.08366  22957409.903    22957409.056    22957412.490  
      3420.985        2665.703          45.000          40.000  
  -3270251.02327  -2535163.77766  24461526.921    24461525.979    24461531.036  
      2315.301        1804.131          44.000          38.000  
  26477156.96028  20626422.52167  21449803.556    21449802.652    21449808.088  
     -2453.224       -1911.603          51.000          46.000  
 19  4  7 18 41 30.0000000  0 10G23G18G16G07G08G09G30G11G28G27
  27807481.52127  21659831.24266  23433750.245    23433749.269    23433752.072  
     -3361.734       -2619.533          42.000          38.000  
  -5013322.08327  -3865046.05366  23329006.622    23329005.723    23329010.928  
      3383.577        2636.554          43.000          38.000  
  27195050.75627  21182233.98666  23481575.689    23481574.368    23481578.104  
     -2799.324       -2181.291          45.000          39.000  
  21599886.68828  16842450.89467  20706866.381    20706865.771    20706868.545  
      1633.101        1272.546          53.000          46.000  
  23769925.38928  18524048.20767  20246493.570    20246491.968    20246497.527  
      -299.942        -233.721          52.000          46.000  
  26371960.07427  20545436.83767  22076961.728    22076960.718    22076966.674  
     -2358.086       -1837.470          45.000          42.000  
  20141982.07327  15703626.05167  22752380.308    22752379.465    22752385.549  
      3007.062        2343.165          47.000          42.000  
  19634348.86227  15305577.08866  22950901.915    22950900.985    22950904.528  
      3419.243        2664.345          44.000          40.000  
  -3293397.76027  -2553200.15866  24457122.325    24457121.327    24457126.349  
      2314.393        1803.423          43.000          38.000  
  26501709.68828  20645554.51367  21454475.787    21454474.871    21454480.323  
     -2456.959       -1914.514          51.000          46.000  
 19  4  7 18 41 40.0000000  0 10G23G18G16G07G08G09G30G11G28G27
  27841111.78527  21686036.63066  23440149.863    23440148.833    23440151.705  
     -3364.029       -2621.321          42.000          38.000  
  -5047145.05427  -3891401.59066  23322570.249    23322569.408    23322574.643  
      3381.408        2634.863          42.000          38.000  
  27223049.74827  21204051.38066  23486903.765    23486902.401    23486906.112  
     -2799.960       -2181.787          45.000          40.000  
  21583580.63528  16829744.88067  20703763.424    20703762.841    20703765.603  
      1628.647        1269.076          53.000          46.000  
  23772957.23428  18526410.68667  20247070.509    20247068.895    20247074.477  
      -306.091        -238.512          52.000          46.000  
  26395566.03427  20563831.07467  22081453.675    22081452.784    22081458.786  
     -2362.572       -1840.965          46.000          42.000  
  20111925.85027  15680205.61867  22746660.876    22746659.941    22746666.032  
      3005.061        2341.606          47.000          42.000  
  19600170.24527  15278944.41966  22944397.906    22944397.066    22944400.548  
      3416.673        2662.343          45.000          40.000  
  -3316535.27327  -2571229.36266  24452719.350    24452718.374    24452723.354  
      2312.994        1802.333          44.000          38.000  
  26526304.58328  20664719.35967  21459156.039    21459155.132    21459160.561  
     -2461.570       -1918.106          51.000          46.000  
 19  4  7 18 41 50.0000000  0 10G23G18G16G07G08G09G30G11G28G27
  27874757.65127  21712254.16366  23446552.418    23446551.422    23446554.334  
     -3365.691       -2622.616          42.000          38.000  
  -5080948.43627  -3917741.86566  23316137.705    23316136.784    23316142.167  
      3379.259        2633.189          43.000          38.000  
  27251054.62427  21225873.34266  23492233.014    23492231.555    23492235.279  
     -2801.039       -2182.628          44.000          40.000  
  21567318.78028  16817073.30867  20700668.875    20700668.307    20700671.070  
      1623.674        1265.201          53.000          46.000  
  23776051.44428  18528821.75867  20247659.294    20247657.715    20247663.276  
      -312.820        -243.756          52.000          46.000  
  26419217.60427  20582260.86967  22085954.435    22085953.534    22085959.562  
     -2367.747       -1844.998          46.000          42.000  
  20081889.66527  15656800.80767  22740945.155    22740944.266    22740950.320  
      3002.419        2339.547          46.000          42.000  
  19566015.14727  15252330.05766  22937898.491    22937897.608    22937901.050  
      3413.988        2660.250          45.000          40.000  
  -3339660.98527  -2589249.39666  24448318.690    24448317.768    24448322.678  
      2311.766        1801.376          44.000          39.000  
  26550943.93728  20683918.85467  21463844.837    21463843.846    21463849.286  
     -2466.411       -1921.879          51.000          46.000  
 19  4  7 18 42  0.0000000  0 10G23G18G16G07G08G09G30G11G28G27
  27908416.72227  21738481.97666  23452957.540    23452956.581    23452959.457  
     -3366.587       -2623.315          42.000          38.000  
  -5114734.58027  -3944068.70566  23309708.324    23309707.379    23309712.808  
      3377.587        2631.886          43.000          38.000  
  27279063.17227  21247698.17066  23497562.843    23497561.412    23497565.111  
     -2800.868       -2182.495          45.000          40.000  
  21551098.81328  16804434.37367  20697582.291    20697581.757    20697584.511  
      1619.853        1262.223          53.000          46.000  
  23779205.68128  18531279.60767  20248259.521    20248257.937    20248263.502  
      -318.307        -248.031          52.000          46.000  
  26442912.37427  20600724.30467  22090463.433    22090462.519    22090468.523  
     -2371.691       -1848.071          46.000          42.000  
  20051871.27327  15633409.86267  22735232.766    22735231.951    22735237.974  
      3000.865        2338.336          47.000          42.000  
  19531881.38127  15225732.32566  22931402.986    22931402.146    22931405.616  
      3412.210        2658.865          44.000          40.000  
  -3362777.26627  -2607262.05966  24443919.853    24443918.824    24443923.731  
      2311.318        1801.027          44.000          39.000  
  26575625.34928  20703151.11967  21468541.562    21468540.580    21468546.024  
     -2470.128       -1924.775          51.000          46.000  
 19  4  7 18 42 10.0000000  0 10G23G18G16G07G08G09G30G11G28G27
  27942089.18527  21764720.23366  23459365.245    23459364.192    23459367.061  
     -3367.565       -2624.077          43.000          38.000  
  -5148502.88527  -3970381.66466  23303282.421    23303281.528    23303286.948  
      3376.580        2631.101          43.000          39.000  
  27307075.39827  21269525.87266  23502893.435    23502891.968    23502895.601  
     -2800.798       -2182.440          44.000          39.000  
  21534921.01928  16791828.29967  20694503.778    20694503.224    20694505.958  
      1616.292        1259.448          53.000          46.000  
  23782420.04828  18533784.30867  20248871.221    20248869.632    20248875.178  
      -323.836        -252.340          52.000          46.000  
  26466650.45327  20619221.50667  22094980.650    22094979.709    22094985.725  
     -2375.355       -1850.926          45.000          42.000  
  20021870.95527  15610032.99667  22729523.962    22729523.072    22729529.094  
      2999.726        2337.449          47.000          42.000  
  19497769.25627  15199151.46466  22924911.669    22924910.789    22924914.280  
      3410.803        2657.769          45.000          40.000  
  -3385883.92727  -2625267.21266  24439522.651    24439521.706    24439526.622  
      2310.470        1800.366          43.000          38.000  
  26600348.93728  20722416.24467  21473246.257    21473245.309    21473250.766  
     -2473.911       -1927.723          51.000          46.000  
 19  4  7 18 42 20.0000000  0 10G23G18G16G07G08G09G30G11G28G27
  27975774.70127  21790968.67966  23465775.375    23465774.306    23465777.152  
     -3369.678       -2625.723          43.000          38.000  
  -5182253.45927  -3996680.80466  23296859.878    23296859.072    23296864.471  
      3373.486        2628.690          43.000          39.000  
  27335091.06427  21291356.25166  23508224.690    23508223.213    23508226.828  
     -2802.248       -2183.570          45.000          40.000  
  21518785.29328  16779255.00867  20691433.278    20691432.695    20691435.449  
      1610.872        1255.225          53.000          46.000  
  23785694.48828  18536335.82567  20249494.331    20249492.732    20249498.297  
      -331.015        -257.934          53.000          46.000  
  26490431.56327  20637752.23467  22099506.027    22099505.115    22099511.176  
     -2380.862       -1855.217          46.000          42.000  
  19991888.63927  15586670.16767  22723818.499    22723817.636    22723823.643  
      2996.753        2335.132          47.000          43.000  
  19463678.66427  15172587.37466  22918424.473    22918423.630    22918426.980  
      3407.336        2655.067          45.000          40.000  
  -3408981.12227  -2643264.99666  24435127.379    24435126.461    24435131.344  
      2308.629        1798.932          44.000          38.000  
  26625114.42128  20741714.02867  21477958.972    21477957.998    21477963.493  
     -2479.308       -1931.928          51.000          46.000  
 19  4  7 18 42 30.0000000  0 10G23G18G16G07G08G09G30G11G28G27
  28009474.81427  21817228.49766  23472188.262    23472187.210    23472190.010  
     -3370.666       -2626.493          43.000          38.000  
  -5215984.62627  -4022964.80666  23290440.955    23290440.113    23290445.572  
      3372.011        2627.541          43.000          38.000  
  27363111.88627  21313190.66066  23513556.801    23513555.403    23513559.056  
     -2802.387       -2183.678          45.000          40.000  
  21502693.38628  16766715.86467  20688371.068    20688370.501    20688373.254  
      1606.684        1251.962          53.000          46.000  
  23789030.53128  18538935.33767  20250129.151    20250127.568    20250133.123  
      -336.910        -262.527          53.000          46.000  
  26514257.27927  20656317.71667  22104039.961    22104038.986    22104045.069  
     -2384.910       -1858.371          45.000          42.000  
  19961926.02627  15563322.68167  22718116.798    22718115.954    22718121.941  
      2995.149        2333.882          47.000          42.000  
  19429611.33927  15146041.41066  22911941.716    22911940.830    22911944.145  
      3405.213        2653.413          44.000          40.000  
  -3432067.27727  -2661254.19466  24430734.214    24430733.323    24430738.111  
      2307.788        1798.276          44.000          38.000  
  26649923.38328  20761045.67467  21482679.951    21482678.975    21482684.472  
     -2483.290       -1935.031          51.000          46.000  
 19  4  7 18 42 40.0000000  0 10G23G18G16G07G08G09G30G11G28G27
  28043186.77927  21843497.55266  23478603.547    23478602.471    23478605.182  
     -3371.655       -2627.264          44.000          38.000  
  -5249698.81327  -4049235.58466  23284025.477    23284024.649    23284029.986  
      3370.514        2626.375          43.000          39.000  
  27391135.27327  21335027.05366  23518889.456    23518888.134    23518891.795  
     -2802.568       -2183.819          45.000          40.000  
  21486642.75128  16754208.87267  20685316.749    20685316.162    20685318.905  
      1602.814        1248.946          53.000          46.000  
  23792425.45528  18541580.74067  20250775.159    20250773.592    20250779.156  
      -342.513        -266.893          53.000          46.000  
  26538124.85927  20674915.82167  22108581.753    22108580.831    22108586.916  
     -2388.752       -1861.365          46.000          42.000  
  19931980.60327  15539988.59367  22712418.384    22712417.509    22712423.472  
      2993.512        2332.607          47.000          43.000  
  19395564.80727  15119511.66966  22905462.736    22905461.940    22905465.326  
      3403.589        2652.147          45.000          40.000  
  -3455144.98227  -2679236.79066  24426342.555    24426341.640    24426346.500  
      2307.412        1797.983          44.000          38.000  
  26674773.06728  20780409.06967  21487408.633    21487407.699    21487413.207  
     -2487.214       -1938.089          51.000          46.000  
 19  4  7 18 42 50.0000000  0 10G23G18G16G07G08G09G30G11G28G27
  28076912.53327  21869777.34566  23485021.466    23485020.293    23485022.975  
     -3373.606       -2628.784          43.000          38.000  
  -5283393.96027  -4075491.51666  23277613.461    23277612.733    23277618.047  
      3368.133        2624.519          43.000          39.000  
  27419163.20727  21356866.97366  23524223.017    23524221.650    23524225.352  
     -2803.424       -2184.486          45.000          40.000  
  21470635.49028  16741735.69267  20682270.680    20682270.078    20682272.825  
      1598.273        1245.408          53.000          46.000  
  23795881.11528  18544273.46267  20251432.751    20251431.195    20251436.746  
      -348.731        -271.738          52.000          46.000  
  26562036.18827  20693548.02567  22113131.921    22113131.003    22113137.116  
     -2393.744       -1865.255          46.000          42.000  
  19902054.44327  15516669.50667  22706723.660    22706722.782    22706728.704  
      2991.618        2331.131          47.000          43.000  
  19361541.14127  15092999.75266  22898988.305    22898987.453    22898990.825  
      3400.923        2650.070          45.000          40.000  
  -3478212.18727  -2697211.21066  24421953.176    24421952.174    24421956.940  
      2305.884        1796.793          43.000          38.000  
  26699665.38528  20799805.66567  21492145.542    21492144.576    21492150.051  
     -2491.706       -1941.589          51.000          46.000  
 19  4  7 18 43  0.0000000  0 10G23G18G16G07G08G09G30G11G28G27
  28110650.80227  21896066.89666  23491441.531    23491440.433    23491443.187  
     -3374.541       -2629.512          42.000          38.000  
  -5317071.02927  -4101733.38166  23271204.935    23271204.285    23271209.543  
      3366.628        2623.346          44.000          39.000  
  27447194.45827  21378709.50666  23529557.262    23529555.886    23529559.631  
     -2803.528       -2184.567          45.000          40.000  
  21454670.55428  16729295.47667  20679232.648    20679232.069    20679234.800  
      1594.165        1242.206          53.000          46.000  
  23799396.40528  18547012.65167  20252101.679    20252100.117    20252105.682  
      -354.734        -276.416          52.000          46.000  
  26585990.03227  20712213.33967  22117690.177    22117689.254    22117695.393  
     -2398.027       -1868.592          45.000          42.000  
  19872146.48427  15493364.60867  22701032.350    22701031.478    22701037.408  
      2989.712        2329.646          47.000          42.000  
  19327539.37627  15066504.86766  22892518.049    22892517.171    22892520.477  
      3398.797        2648.413          45.000          40.000  
  -3501270.05827  -2715178.35266  24417565.298    24417564.366    24417569.095  
      2305.003        1796.106          44.000          38.000  
  26724599.10228  20819234.54167  21496890.222    21496889.297    21496894.811  
     -2495.607       -1944.629          50.000          46.000  
 19  4  7 18 43 10.0000000  0 10G23G18G16G07G08G09G30G11G28G27
  28144401.00327  21922365.72366  23497863.897    23497862.915    23497865.804  
     -3375.766       -2630.467          43.000          37.000  
  -5350730.31327  -4127961.37166  23264799.755    23264799.006    23264804.332  
      3364.538        2621.718          43.000          38.000  
  27475228.56127  21400554.25466  23534891.986    23534890.557    23534894.334  
     -2803.745       -2184.736          45.000          40.000  
  21438747.47328  16716887.88167  20676202.575    20676201.998    20676204.740  
      1589.899        1238.882          53.000          46.000  
  23802970.89228  18549797.96867  20252781.851    20252780.318    20252785.898  
      -360.689        -281.056          52.000          46.000  
  26609985.79727  20730911.33567  22122256.373    22122255.495    22122261.632  
     -2402.130       -1871.790          45.000          42.000  
  19842256.30927  15470073.57367  22695344.458    22695343.567    22695349.520  
      2987.755        2328.121          47.000          42.000  
  19293559.10727  15040026.74666  22886051.740    22886050.824    22886054.177  
      3396.582        2646.687          45.000          40.000  
  -3524319.11227  -2733138.63266  24413179.306    24413178.307    24413183.029  
      2304.230        1795.504          45.000          38.000  
  26749573.62228  20838695.19967  21501642.706    21501641.776    21501647.312  
     -2499.825       -1947.916          51.000          46.000  
 19  4  7 18 43 20.0000000  0 10G23G18G16G07G08G09G30G11G28G27
  28178164.57427  21948674.96666  23504289.011    23504287.970    23504290.789  
     -3376.716       -2631.207          43.000          37.000  
  -5384370.13627  -4154174.20366  23258398.171    23258397.548    23258402.873  
      3363.256        2620.719          42.000          38.000  
  27503267.03627  21422402.40766  23540227.584    23540226.122    23540229.914  
     -2803.803       -2184.782          45.000          40.000  
  21422867.99228  16704514.26667  20673180.805    20673180.244    20673182.967  
      1586.127        1235.943          53.000          46.000  
  23806606.13928  18552630.62367  20253473.607    20253472.089    20253477.657  
      -366.235        -285.378          52.000          46.000  
  26634024.95327  20749643.13367  22126830.859    22126829.969    22126836.167  
     -2405.676       -1874.553          45.000          42.000  
  19812385.59627  15446797.69267  22689660.254    22689659.377    22689665.279  
      2986.530        2327.166          47.000          42.000  
  19259602.04327  15013566.71466  22879589.881    22879589.040    22879592.399  
      3394.742        2645.254          45.000          40.000  
  -3547357.72827  -2751090.80166  24408795.209    24408794.159    24408798.952  
      2303.736        1795.119          45.000          39.000  
  26774590.47328  20858188.84167  21506403.267    21506402.307    21506407.843  
     -2503.377       -1950.683          51.000          46.000  
 19  4  7 18 43 30.0000000  0 10G23G18G16G07G08G09G30G11G28G27
  28211942.28927  21974995.24566  23510716.631    23510715.740    23510718.474  
     -3379.001       -2632.988          42.000          37.000  
  -5417989.48827  -4180371.07766  23252000.524    23251999.916    23252005.238  
      3361.276        2619.176          43.000          38.000  
  27531310.81027  21444254.69966  23545564.153    23545562.712    23545566.531  
     -2804.562       -2185.373          45.000          40.000  
  21407033.08128  16692175.36667  20670167.544    20670166.956    20670169.692  
      1581.375        1232.240          53.000          46.000  
  23810302.77628  18555511.12467  20254177.052    20254175.513    20254181.097  
      -372.619        -290.352          52.000          46.000  
  26658108.29927  20768409.35467  22131413.790    22131412.906    22131419.103  
     -2410.258       -1878.123          46.000          42.000  
  19782535.28627  15423537.72467  22683979.912    22683979.046    22683984.969  
      2984.096        2325.270          47.000          42.000  
  19225669.13127  14987125.49266  22873132.733    22873131.794    22873135.143  
      3392.073        2643.174          45.000          40.000  
  -3570385.13727  -2769034.22366  24404413.190    24404412.145    24404416.991  
      2302.270        1793.977          44.000          38.000  
  26799650.35928  20877716.03267  21511172.032    21511171.040    21511176.597  
     -2508.072       -1954.342          51.000          46.000  
 19  4  7 18 43 40.0000000  0 10G23G18G16G07G08G09G30G11G28G27
  28245729.82327  22001323.19066  23517146.105    23517145.351    23517148.144  
     -3379.689       -2633.524          43.000          37.000  
  -5451592.52627  -4206555.25066  23245605.993    23245605.428    23245610.682  
      3358.921        2617.341          43.000          38.000  
  27559355.66327  21466107.79466  23550900.876    23550899.464    23550903.285  
     -2804.946       -2185.672          45.000          40.000  
  21391238.51028  16679867.91867  20667161.957    20667161.340    20667164.101  
      1577.061        1228.879          53.000          46.000  
  23814056.78628  18558436.32767  20254891.411    20254889.879    20254895.452  
      -378.781        -295.154          52.000          46.000  
  26682231.51227  20787206.66667  22136004.335    22136003.386    22136009.557  
     -2414.944       -1881.775          44.000          42.000  
  19752701.25827  15400290.42567  22678302.733    22678301.846    22678307.724  
      2982.120        2323.730          47.000          42.000  
  19191756.26027  14960699.89566  22866679.294    22866678.434    22866681.707  
      3389.912        2641.490          45.000          40.000  
  -3593405.44827  -2786972.11366  24400032.542    24400031.494    24400036.337  
      2301.342        1793.254          44.000          38.000  
  26824749.04128  20897273.43667  21515948.104    21515947.174    21515952.707  
     -2512.262       -1957.607          51.000          46.000  
 19  4  7 18 43 50.0000000  0 10G23G18G16G07G08G09G30G11G28G27
  28279531.85127  22027662.40766  23523578.531    23523577.646    23523580.410  
     -3379.949       -2633.726          43.000          37.000  
  -5485174.46227  -4232722.97566  23239215.559    23239214.988    23239220.248  
      3357.872        2616.524          42.000          38.000  
  27587406.27427  21487965.40666  23556238.762    23556237.351    23556241.080  
     -2804.774       -2185.538          45.000          40.000  
  21375489.17428  16667595.70667  20664164.945    20664164.339    20664167.093  
      1573.335        1225.975          53.000          46.000  
  23817872.58928  18561409.67967  20255617.550    20255616.000    20255621.566  
      -384.161        -299.346          53.000          46.000  
  26706399.21427  20806038.63167  22140603.178    22140602.355    22140608.581  
     -2418.415       -1884.479          46.000          42.000  
  19722888.33127  15377059.58967  22672629.456    22672628.596    22672634.498  
      2980.639        2322.576          47.000          42.000  
  19157868.28527  14934293.67866  22860230.622    22860229.794    22860232.971  
      3388.222        2640.173          44.000          40.000  
  -3616413.97327  -2804900.82466  24395654.134    24395653.079    24395657.955  
      2300.570        1792.652          44.000          38.000  
  26849891.14928  20916864.68867  21520732.493    21520731.543    21520737.102  
     -2515.734       -1960.312          51.000          46.000  
 19  4  7 18 44  0.0000000  0 10G23G18G16G07G08G09G30G11G28G27
  28313346.54727  22054011.50166  23530013.231    23530012.396    23530015.097  
     -3382.117       -2635.416          42.000          37.000  
  -5518736.65527  -4258875.31666  23232828.882    23232828.364    23232833.622  
      3355.030        2614.309          43.000          38.000  
  27615460.95927  21509826.20566  23561577.292    23561575.941    23561579.748  
     -2805.912       -2186.425          45.000          39.000  
  21359783.47528  16655357.50167  20661176.258    20661175.654    20661178.405  
      1568.222        1221.991          53.000          46.000  
  23821748.65128  18564429.98967  20256355.173    20256353.586    20256359.155  
      -390.630        -304.387          52.000          46.000  
  26730609.69627  20824903.92267  22145210.371    22145209.461    22145215.717  
     -2423.030       -1888.075          45.000          42.000  
  19693094.93127  15353843.95667  22666959.933    22666959.087    22666964.981  
      2978.407        2320.837          47.000          42.000  
  19124003.65727  14907905.67466  22853786.297    22853785.545    22853788.748  
      3385.131        2637.764          45.000          39.000  
  -3639412.36827  -2822821.63866  24391277.667    24391276.633    24391281.437  
      2299.262        1791.633          44.000          38.000  
  26875074.90428  20936488.38567  21525524.776    21525523.872    21525529.413  
     -2520.495       -1964.022          51.000          46.000  
 19  4  7 18 44 10.0000000  0 10G23G18G16G07G08G09G30G11G28G27
  28347172.69627  22080369.53466  23536450.116    23536449.358    23536451.896  
     -3382.736       -2635.898          43.000          37.000  
  -5552280.16127  -4285013.09866  23226445.726    23226445.152    23226450.387  
      3353.697        2613.270          44.000          38.000  
  27643518.54727  21531689.23866  23566916.523    23566915.165    23566918.964  
     -2805.738       -2186.289          45.000          39.000  
  21344120.30028  16643152.43467  20658195.659    20658195.050    20658197.789  
      1564.128        1218.801          53.000          46.000  
  23825683.79728  18567496.34667  20257103.979    20257102.407    20257107.982  
      -396.444        -308.917          52.000          46.000  
  26754861.64227  20843801.53667  22149825.380    22149824.414    22149830.690  
     -2427.244       -1891.359          45.000          42.000  
  19663320.02727  15330642.73367  22661293.990    22661293.107    22661299.003  
      2976.803        2319.587          47.000          42.000  
  19090161.23427  14881534.97766  22847346.325    22847345.536    22847348.791  
      3383.125        2636.201          45.000          40.000  
  -3662401.76227  -2840735.42066  24386902.925    24386901.889    24386906.628  
      2298.422        1790.978          44.000          37.000  
  26900299.09428  20956143.59967  21530324.823    21530323.890    21530329.415  
     -2524.380       -1967.049          51.000          46.000  
 19  4  7 18 44 20.0000000  0 10G23G18G16G07G08G09G30G11G28G27
  28381008.78627  22106735.30066  23542888.954    23542888.231    23542890.692  
     -3384.197       -2637.037          43.000          37.000  
  -5585806.11127  -4311137.20366  23220066.139    23220065.441    23220070.632  
      3351.351        2611.442          44.000          39.000  
  27671577.68727  21553553.49166  23572256.051    23572254.630    23572258.426  
     -2806.124       -2186.590          45.000          39.000  
  21328498.40528  16630979.52667  20655222.967    20655222.310    20655225.035  
      1560.024        1215.603          53.000          46.000  
  23829676.72328  18570607.71267  20257863.785    20257862.227    20257867.815  
      -402.290        -313.473          52.000          46.000  
  26779153.64027  20862730.34767  22154447.971    22154447.046    22154453.314  
     -2431.488       -1894.666          45.000          42.000  
  19633562.30127  15307454.90667  22655631.260    22655630.368    22655636.310  
      2974.736        2317.976          47.000          42.000  
  19056339.92927  14855180.71166  22840910.423    22840909.601    22840912.798  
      3380.802        2634.391          44.000          40.000  
  -3685383.53327  -2858643.27166  24382529.639    24382528.593    24382533.272  
      2297.683        1790.402          44.000          37.000  
  26925562.24528  20975829.16167  21535132.224    21535131.307    21535136.831  
     -2528.354       -1970.146          51.000          46.000  
 19  4  7 18 44 30.0000000  0 10G23G18G16G07G08G09G30G11G28G27
  28414857.28627  22133110.74766  23549330.106    23549329.371    23549331.850  
     -3386.010       -2638.449          42.000          37.000  
  -5619311.99627  -4337245.66066  23213690.220    23213689.483    23213694.634  
      3349.232        2609.791          44.000          39.000  
  27699640.92527  21575420.94166  23577596.285    23577594.870    23577598.630  
     -2806.814       -2187.128          45.000          39.000  
  21312920.45728  16618840.86867  20652258.586    20652257.922    20652260.644  
      1555.110        1211.774          53.000          46.000  
  23833729.81928  18573765.97067  20258635.066    20258633.518    20258639.091  
      -408.638        -318.419          52.000          46.000  
  26803488.16527  20881692.31267  22159078.715    22159077.748    22159084.001  
     -2435.645       -1897.905          46.000          42.000  
  19603824.44527  15284282.55467  22649972.361    22649971.412    22649977.358  
      2972.367        2316.130          47.000          42.000  
  19022542.38027  14828844.96566  22834478.988    22834478.142    22834481.314  
      3378.177        2632.346          45.000          40.000  
  -3708355.14227  -2876543.21666  24378158.303    24378157.226    24378161.795  
      2296.312        1789.334          44.000          37.000  
  26950866.86528  20995547.04567  21539947.524    21539946.630    21539952.165  
     -2532.934       -1973.715          51.000          46.000  
 19  4  7 18 44 40.0000000  0 10G23G18G16G07G08G09G30G11G28G27
  28448719.71227  22159497.02566  23555773.865    23555773.158    23555775.585  
     -3386.201       -2638.598          43.000          37.000  
  -5652796.03827  -4363337.09766  23207318.362    23207317.643    23207322.945  
      3347.648        2608.557          44.000          39.000  
  27727709.85227  21597292.81566  23582937.654    23582936.255    23582939.953  
     -2806.649       -2186.999          45.000          39.000  
  21297388.03028  16606737.67867  20649302.816    20649302.190    20649304.914  
      1551.493        1208.956          53.000          46.000  
  23837844.64328  18576972.33067  20259418.041    20259416.515    20259422.138  
      -414.106        -322.680          52.000          46.000  
  26827866.63027  20900688.49767  22163717.903    22163716.831    22163723.044  
     -2439.227       -1900.696          45.000          42.000  
  19574108.06827  15261126.93167  22644317.571    22644316.577    22644322.511  
      2971.011        2315.074          47.000          42.000  
  18988770.20727  14802528.99866  22828052.325    22828051.464    22828054.602  
      3376.503        2631.041          45.000          40.000  
  -3731315.04427  -2894434.02366  24373789.143    24373788.137    24373792.628  
      2296.026        1789.111          44.000          37.000  
  26976214.36528  21015298.33867  21544770.981    21544770.094    21544775.632  
     -2536.311       -1976.346          51.000          46.000  
 19  4  7 18 44 50.0000000  0 10G23G18G16G07G08G09G30G11G28G27
  28482592.60427  22185891.46266  23562219.768    23562219.013    23562221.366  
     -3388.181       -2640.141          43.000          37.000  
  -5686261.53527  -4389414.09466  23200950.101    23200949.374    23200954.567  
      3345.083        2606.558          44.000          39.000  
  27755780.99927  21619166.42766  23588279.472    23588278.070    23588281.701  
     -2807.677       -2187.800          46.000          40.000  
  21281898.04728  16594667.54567  20646355.163    20646354.544    20646357.261  
      1546.212        1204.841          53.000          46.000  
  23842017.73428  18580224.08967  20260212.157    20260210.622    20260216.228  
      -420.851        -327.936          52.000          46.000  
  26852285.67427  20919716.32267  22168364.662    22168363.616    22168369.871  
     -2444.344       -1904.684          45.000          42.000  
  19544409.92427  15237985.54567  22638666.093    22638665.171    22638671.166  
      2968.176        2312.864          47.000          42.000  
  18955020.22627  14776230.32466  22821629.999    22821629.040    22821632.168  
      3373.230        2628.491          45.000          40.000  
  -3754266.50627  -2912318.27366  24369421.526    24369420.594    24369425.066  
      2294.116        1787.623          43.000          37.000  
  27001601.35828  21035080.40367  21549601.953    21549601.089    21549606.630  
     -2541.299       -1980.233          51.000          46.000  
 19  4  7 18 45  0.0000000  0 10G23G18G16G07G08G09G30G11G28G27
  28516478.51227  22212296.05466  23568668.119    23568667.233    23568669.611  
     -3388.674       -2640.525          42.000          37.000  
  -5719705.48027  -4415474.30366  23194585.979    23194585.299    23194590.433  
      3343.436        2605.275          44.000          39.000  
  27783857.20127  21641043.97966  23593622.141    23593620.857    23593624.484  
     -2807.900       -2187.974          45.000          39.000  
  21266453.19928  16582632.59767  20643416.090    20643415.469    20643418.199  
      1542.386        1201.859          53.000          46.000  
  23846251.97328  18583523.49467  20261017.931    20261016.369    20261021.980  
      -426.271        -332.159          52.000          46.000  
  26876747.84427  20938777.74467  22173019.574    22173018.580    22173024.860  
     -2448.285       -1907.755          45.000          42.000  
  19514732.82227  15214860.53667  22633018.765    22633017.796    22633023.781  
      2966.860        2311.839          47.000          42.000  
  18921295.20827  14749951.10266  22815212.368    22815211.380    22815214.463  
      3371.444        2627.099          44.000          39.000  
  -3777206.76527  -2930193.79066  24365056.160    24365055.186    24365059.696  
      2293.549        1787.181          43.000          37.000  
  27027030.44028  21054895.27667  21554440.987    21554440.060    21554445.620  
     -2544.914       -1983.050          51.000          46.000  
 19  4  7 18 45 10.0000000  0 10G23G18G16G07G08G09G30G11G28G27
  28550373.30227  22238707.57466  23575117.905    23575117.174    23575119.652  
     -3389.763       -2641.374          42.000          37.000  
  -5753131.97527  -4441520.91066  23188225.061    23188224.421    23188229.628  
      3341.562        2603.815          44.000          39.000  
  27811934.25827  21662922.17866  23598965.078    23598963.756    23598967.389  
     -2807.706       -2187.823          45.000          39.000  
  21251049.48328  16570629.70467  20640484.886    20640484.221    20640486.956  
      1538.280        1198.660          53.000          46.000  
  23850542.96428  18586867.12667  20261834.489    20261832.919    20261838.525  
      -431.982        -336.609          52.000          46.000  
  26901248.94927  20957869.50067  22177682.003    22177681.004    22177687.254  
     -2451.902       -1910.573          45.000          42.000  
  19485072.75127  15191748.79567  22627374.610    22627373.656    22627379.632  
      2965.271        2310.601          47.000          42.000  
  18887591.18827  14723688.23766  22808798.650    22808797.716    22808800.803  
      3369.242        2625.383          44.000          40.000  
  -3800139.95927  -2948063.78866  24360692.175    24360691.104    24360695.611  
      2292.960        1786.722          44.000          37.000  
  27052497.41528  21074739.65967  21559287.135    21559286.258    21559291.836  
     -2548.623       -1985.940          51.000          46.000  
 19  4  7 18 45 20.0000000  0 10G23G18G16G07G08G09G30G11G28G27
  28584280.98526  22265129.11966  23581570.283    23581569.628    23581572.177  
     -3391.727       -2642.904          41.000          37.000  
  -5786536.72927  -4467550.56866  23181868.294    23181867.684    23181872.875  
      3339.429        2602.152          44.000          39.000  
  27840016.37227  21684804.34866  23604308.980    23604307.581    23604311.174  
     -2808.495       -2188.438          45.000          39.000  
  21235691.13928  16558662.16067  20637562.299    20637561.638    20637564.352  
      1533.630        1195.036          53.000          46.000  
  23854895.00328  18590258.32367  20262662.642    20262661.062    20262666.688  
      -438.160        -341.423          52.000          46.000  
  26925793.08527  20976994.78767  22182352.592    22182351.595    22182357.847  
     -2456.648       -1914.271          45.000          42.000  
  19455433.93027  15168653.61667  22621734.470    22621733.546    22621739.542  
      2962.990        2308.823          46.000          42.000  
  18853912.43327  14697445.06666  22802389.720    22802388.864    22802391.939  
      3366.791        2623.474          45.000          39.000  
  -3823061.93327  -2965925.05366  24356330.306    24356329.162    24356333.817  
      2291.738        1785.770          44.000          37.000  
  27078006.34328  21094616.74267  21564141.369    21564140.460    21564146.040  
     -2552.870       -1989.249          51.000          46.000  
 19  4  7 18 45 30.0000000  0 10G23G18G16G07G08G09G30G11G28G27
  28618199.73026  22291559.28366  23588024.754    23588024.158    23588026.733  
     -3392.053       -2643.158          40.000          36.000  
  -5819921.30627  -4493564.51466  23175515.458    23175514.808    23175519.931  
      3338.329        2601.295          44.000          39.000  
  27868101.73827  21706689.04966  23609653.464    23609652.007    23609655.610  
     -2808.070       -2188.106          45.000          39.000  
  21220376.41828  16546728.63267  20634647.979    20634647.332    20634650.061  
      1529.999        1192.207          53.000          46.000  
  23859306.27528  18593695.67767  20263502.071    20263500.490    20263506.114  
      -443.505        -345.588          52.000          46.000  
  26950378.37427  20996152.15167  22187030.929    22187030.005    22187036.267  
     -2460.282       -1917.103          44.000          42.000  
  19425814.75527  15145573.75067  22616098.115    22616097.195    22616103.173  
      2961.529        2307.685          47.000          42.000  
  18820257.38527  14671220.35566  22795985.460    22795984.511    22795987.546  
      3364.919        2622.015          45.000          39.000  
  -3845974.54227  -2983779.03266  24351970.158    24351969.027    24351973.715  
      2291.312        1785.438          44.000          37.000  
  27103555.43128  21114525.12067  21569003.194    21569002.302    21569007.894  
     -2556.193       -1991.839          51.000          46.000  
 19  4  7 18 45 40.0000000  0 10G23G18G16G07G08G09G30G11G28G27
  28652130.57226  22317998.87766  23594481.370    23594480.782    23594483.473  
     -3393.421       -2644.224          41.000          36.000  
  -5853284.32727  -4519561.66066  23169166.677    23169166.068    23169171.176  
      3335.730        2599.270          44.000          39.000  
  27896191.44227  21728577.11366  23614998.681    23614997.282    23615000.949  
     -2808.583       -2188.506          45.000          39.000  
  21205106.65328  16534830.12167  20631742.245    20631741.572    20631744.324  
      1525.170        1188.444          53.000          46.000  
  23863777.79128  18597179.97367  20264352.947    20264351.379    20264357.021  
      -449.685        -350.404          53.000          46.000  
  26975005.82727  21015342.36167  22191717.326    22191716.434    22191722.720  
     -2464.010       -1920.008          46.000          42.000  
  19396216.36527  15122510.08167  22610465.709    22610464.773    22610470.814  
      2959.456        2306.070          46.000          42.000  
  18786627.18327  14645015.00966  22789585.707    22789584.814    22789587.872  
      3362.275        2619.955          44.000          39.000  
  -3868876.64627  -3001624.83366  24347612.076    24347610.955    24347615.553  
      2289.988        1784.406          43.000          37.000  
  27129145.67728  21134465.56967  21573872.880    21573871.962    21573877.545  
     -2560.566       -1995.246          51.000          46.000  
 19  4  7 18 45 50.0000000  0 10G23G18G16G07G08G09G30G11G28G27
  28686071.64227  22344446.43266  23600940.031    23600939.632    23600942.264  
     -3394.927       -2645.398          42.000          36.000  
  -5886627.61127  -4545543.42366  23162821.682    23162821.047    23162826.126  
      3332.811        2596.996          45.000          39.000  
  27924283.82527  21750467.26966  23620344.562    23620343.133    23620346.749  
     -2809.783       -2189.441          45.000          39.000  
  21189880.14428  16522965.30367  20628844.747    20628844.076    20628846.789  
      1520.111        1184.502          53.000          46.000  
  23868307.78628  18600709.84367  20265214.999    20265213.394    20265219.035  
      -456.584        -355.780          52.000          46.000  
  26999673.65127  21034564.02867  22196411.517    22196410.557    22196416.870  
     -2469.157       -1924.018          45.000          42.000  
  19366637.21127  15099461.38367  22604837.041    22604836.024    22604842.048  
      2956.547        2303.803          46.000          42.000  
  18753020.26227  14618827.82866  22783190.466    22783189.540    22783192.665  
      3359.098        2617.479          46.000          39.000  
  -3891769.81327  -3019463.65566  24343255.597    24343254.516    24343259.038  
      2288.358        1783.136          43.000          37.000  
  27154775.26028  21154436.65967  21578750.031    21578749.130    21578754.700  
     -2565.302       -1998.937          51.000          46.000  
 19  4  7 18 46  0.0000000  0 10G23G18G16G07G08G09G30G11G28G27
  28720023.38726  22370902.31566  23607401.041    23607400.414    23607402.977  
     -3395.878       -2646.139          41.000          36.000  
  -5919950.33227  -4571509.17166  23156480.656    23156479.915    23156484.999  
      3330.913        2595.517          45.000          39.000  
  27952379.37027  21772359.90066  23625690.869    23625689.531    23625693.136  
     -2809.848       -2189.492          44.000          39.000  
  21174697.56328  16511134.71967  20625955.581    20625954.934    20625957.636  
      1515.701        1181.066          53.000          46.000  
  23872896.85428  18604285.74267  20266088.245    20266086.654    20266092.293  
      -462.161        -360.125          52.000          46.000  
  27024382.30627  21053817.51267  22201113.426    22201112.444    22201118.779  
     -2473.386       -1927.314          44.000          42.000  
  19337077.83027  15076428.11167  22599212.063    22599211.067    22599217.091  
      2954.776        2302.423          46.000          42.000  
  18719437.27827  14592659.27366  22776799.809    22776798.943    22776802.062  
      3357.059        2615.890          45.000          40.000  
  -3914653.56426  -3037295.13466  24338900.824    24338899.802    24338904.311  
      2287.439        1782.420          41.000          36.000  
  27180444.62228  21174438.75967  21583634.738    21583633.828    21583639.420  
     -2569.181       -2001.959          51.000          46.000  
 19  4  7 18 46 10.0000000  0 10G23G18G16G07G08G09G30G11G28G27
  28753986.50826  22397367.09166  23613864.010    23613863.304    23613865.975  
     -3396.167       -2646.364          41.000          36.000  
  -5953251.57327  -4597458.16566  23150143.519    23150142.941    23150148.107  
      3329.508        2594.422          44.000          39.000  
  27980478.94727  21794255.65766  23631038.067    23631036.745    23631040.418  
     -2809.663       -2189.348          45.000          39.000  
  21159559.88028  16499339.12567  20623074.996    20623074.320    20623077.029  
      1512.016        1178.194          53.000          46.000  
  23877545.84428  18607908.32867  20266972.925    20266971.343    20266976.962  
      -467.332        -364.155          52.000          46.000  
  27049132.47927  21073103.34366  22205823.163    22205822.269    22205828.597  
     -2476.196       -1929.503          44.000          41.000  
  19307539.21827  15053411.01967  22593590.982    22593590.035    22593596.051  
      2953.357        2301.317          46.000          42.000  
  18685879.07227  14566510.01966  22770413.899    22770413.020    22770416.129  
      3355.010        2614.294          44.000          39.000  
  -3937527.08027  -3055118.60666  24334547.971    24334547.098    24334551.528  
      2287.494        1782.463          42.000          36.000  
  27206154.55428  21194472.46867  21588527.235    21588526.285    21588531.858  
     -2572.598       -2004.622          51.000          46.000  
 19  4  7 18 46 20.0000000  0 10G23G18G16G07G08G09G30G11G28G27
  28787960.64427  22423840.42066  23620329.037    23620328.374    23620331.033  
     -3397.535       -2647.430          42.000          36.000  
  -5986531.51527  -4623390.57266  23143810.547    23143809.950    23143815.081  
      3327.673        2592.992          44.000          39.000  
  28008582.17527  21816154.26366  23636385.995    23636384.580    23636388.233  
     -2809.891       -2189.525          44.000          39.000  
  21144466.74928  16487578.24367  20620202.874    20620202.177    20620204.893  
      1507.599        1174.752          53.000          46.000  
  23882254.24328  18611577.20867  20267868.872    20267867.307    20267872.934  
      -473.330        -368.829          52.000          46.000  
  27073923.79127  21092421.24767  22210540.900    22210539.951    22210546.223  
     -2480.313       -1932.711          45.000          42.000  
  19278021.09327  15030409.89367  22587973.852    22587972.894    22587978.923  
      2951.264        2299.686          46.000          42.000  
  18652345.40127  14540379.89466  22764032.592    22764031.754    22764034.909  
      3352.277        2612.164          45.000          39.000  
  -3960390.67427  -3072934.36566  24330197.339    24330196.301    24330200.689  
      2286.437        1781.639          43.000          36.000  
  27231904.59528  21214537.42567  21593427.307    21593426.368    21593431.941  
     -2576.374       -2007.564          51.000          46.000  
 19  4  7 18 46 30.0000000  0 10G23G18G16G07G08G09G30G11G28G27
  28821944.08027  22450320.98566  23626795.918    23626795.115    23626797.810  
     -3399.654       -2649.081          43.000          37.000  
  -6019791.63427  -4649307.52966  23137481.354    23137480.708    23137485.814  
      3324.736        2590.703          44.000          39.000  
  28036687.50327  21838054.51766  23641734.167    23641732.815    23641736.480  
     -2811.086       -2190.457          45.000          39.000  
  21129416.70828  16475850.93967  20617338.929    20617338.243    20617340.959  
      1502.356        1170.667          53.000          46.000  
  23887020.63728  18615291.28167  20268775.892    20268774.322    20268779.938  
      -480.188        -374.172          52.000          46.000  
  27098754.56827  21111769.88766  22215265.994    22215265.056    22215271.407  
     -2485.335       -1936.625          44.000          41.000  
  19248521.99927  15007423.59567  22582360.375    22582359.359    22582365.409  
      2948.522        2297.550          47.000          42.000  
  18618834.97127  14514267.88666  22757655.783    22757654.829    22757658.085  
      3349.155        2609.731          45.000          39.000  
  -3983245.98927  -3090743.68966  24325848.192    24325847.052    24325851.384  
      2284.505        1780.134          43.000          36.000  
  27257693.09628  21234632.36167  21598334.779    21598333.761    21598339.302  
     -2581.352       -2011.443          51.000          46.000  
 19  4  7 18 46 40.0000000  0 10G23G18G16G07G08G09G30G11G28G27
  28855937.57927  22476809.39466  23633264.735    23633263.976    23633266.514  
     -3399.800       -2649.195          43.000          37.000  
  -6053030.83427  -4675208.20266  23131156.024    23131155.497    23131160.556  
      3322.725        2589.136          45.000          39.000  
  28064795.76927  21859957.03566  23647083.000    23647081.639    23647085.275  
     -2811.190       -2190.538          45.000          39.000  
  21114410.77128  16464158.00667  20614483.411    20614482.716    20614485.420  
      1498.353        1167.548          53.000          46.000  
  23891845.74528  18619051.10967  20269694.091    20269692.503    20269698.126  
      -485.511        -378.320          52.000          46.000  
  27123625.59127  21131149.88266  22219998.763    22219997.868    22220004.184  
     -2489.040       -1939.512          45.000          41.000  
  19219042.86927  14984452.84867  22576750.661    22576749.637    22576755.686  
      2946.967        2296.338          46.000          42.000  
  18585348.80427  14488174.77866  22751283.465    22751282.612    22751285.839  
      3347.617        2608.533          45.000          39.000  
  -4006092.07927  -3108545.82066  24321500.734    24321499.618    24321503.938  
      2283.972        1779.718          42.000          36.000  
  27283520.85128  21254757.87667  21603249.629    21603248.647    21603254.159  
     -2584.739       -2014.082          51.000          46.000  
 19  4  7 18 46 50.0000000  0 11G01G23G18G16G07G08G09G30G11G28G27
  -1451603.31136  -1075769.55675  24731064.533    24731062.684    24731074.637  
      3656.831        2849.479          40.000          34.000  
  28889943.56027  22503307.56466  23639735.880    23639735.173    23639737.553  
     -3401.228       -2650.308          42.000          37.000  
  -6086246.53127  -4701090.54366  23124835.289    23124834.768    23124839.833  
      3320.313        2587.257          44.000          39.000  
  28092909.40027  21881863.76866  23652432.930    23652431.481    23652435.094  
     -2811.863       -2191.062          45.000          39.000  
  21099451.45828  16452501.39767  20611636.722    20611636.043    20611638.729  
      1493.409        1163.695          53.000          46.000  
  23896731.85928  18622858.47267  20270623.909    20270622.287    20270627.935  
      -491.689        -383.134          52.000          46.000  
  27148539.18827  21150563.07067  22224739.753    22224738.798    22224745.056  
     -2493.934       -1943.325          45.000          42.000  
  19189586.32827  14961499.69567  22571145.258    22571144.267    22571150.249  
      2944.417        2294.351          46.000          42.000  
  18551889.41127  14462102.53366  22744916.367    22744915.481    22744918.689  
      3344.356        2605.992          45.000          39.000  
  -4028926.49026  -3126338.84566  24317155.359    24317154.257    24317158.650  
      2282.798        1778.804          41.000          36.000  
  27309390.24028  21274915.83667  21608172.350    21608171.427    21608176.941  
     -2589.092       -2017.474          51.000          46.000  
 19  4  7 18 47  0.0000000  0 11G01G23G18G16G07G08G09G30G11G28G27
  -1488179.66526  -1104270.64765  24724104.878    24724103.936    24724114.946  
      3658.336        2850.651          40.000          34.000  
  28923959.18526  22529813.23466  23646208.808    23646208.098    23646210.590  
     -3402.096       -2650.984          41.000          36.000  
  -6119441.36827  -4726956.63366  23118518.597    23118518.023    23118523.037  
      3318.289        2585.680          45.000          39.000  
  28121025.70027  21903772.55866  23657783.318    23657781.855    23657785.407  
     -2811.951       -2191.131          46.000          38.000  
  21084536.15328  16440879.08067  20608798.443    20608797.748    20608800.430  
      1489.273        1160.472          53.000          46.000  
  23901676.39828  18626711.35967  20271564.816    20271563.192    20271568.832  
      -497.435        -387.612          52.000          46.000  
  27173492.58727  21170007.26666  22229488.168    22229487.259    22229493.577  
     -2497.241       -1945.902          44.000          41.000  
  19160149.68127  14938562.06167  22565543.561    22565542.652    22565548.620  
      2942.645        2292.970          46.000          42.000  
  18518454.17727  14436049.10866  22738553.875    22738552.945    22738556.152  
      3342.287        2604.379          45.000          39.000  
  -4051751.82227  -3144124.80866  24312811.734    24312810.879    24312815.062  
      2281.820        1778.042          42.000          36.000  
  27335298.45028  21295104.05067  21613102.516    21613101.592    21613107.104  
     -2592.774       -2020.343          50.000          46.000  
 19  4  7 18 47 10.0000000  0 11G01G23G18G16G07G08G09G30G11G28G27
  -1524764.58326  -1132778.38165  24717143.248    24717141.759    24717151.344  
      3658.839        2851.043          41.000          34.000  
  28957983.35326  22556325.54166  23652683.200    23652682.635    23652685.276  
     -3403.021       -2651.705          40.000          36.000  
  -6152616.28727  -4752807.19966  23112205.653    23112204.999    23112209.988  
      3316.665        2584.414          45.000          39.000  
  28149143.58427  21925682.60066  23663133.986    23663132.512    23663136.037  
     -2811.992       -2191.162          44.000          38.000  
  21069663.92028  16429290.32867  20605968.362    20605967.640    20605970.320  
      1485.005        1157.147          53.000          46.000  
  23906678.24028  18630608.89467  20272516.677    20272515.025    20272520.668  
      -503.079        -392.010          52.000          46.000  
  27198484.68827  21189481.61367  22234244.107    22234243.126    22234249.412  
     -2501.442       -1949.176          45.000          42.000  
  19130732.02327  14915639.21667  22559945.593    22559944.625    22559950.613  
      2940.625        2291.396          46.000          42.000  
  18485042.29327  14410013.88066  22732195.732    22732194.873    22732198.090  
      3340.095        2602.671          44.000          39.000  
  -4074569.22126  -3161904.59265  24308469.683    24308468.675    24308472.932  
      2281.410        1777.722          41.000          35.000  
  27361244.35728  21315321.62867  21618039.852    21618038.958    21618044.460  
     -2596.506       -2023.251          51.000          46.000  
 19  4  7 18 47 20.0000000  0 11G01G23G18G16G07G08G09G30G11G28G27
  -1561353.54326  -1161289.23065  24710180.368    24710178.882    24710188.309  
      3658.999        2851.168          40.000          35.000  
  28992020.29926  22582847.79766  23659160.180    23659159.721    23659162.396  
     -3404.212       -2652.633          41.000          36.000  
  -6185766.58427  -4778638.58466  23105897.353    23105896.613    23105901.666  
      3313.701        2582.105          45.000          39.000  
  28177267.49527  21947597.32766  23668485.783    23668484.282    23668487.894  
     -2812.744       -2191.749          45.000          38.000  
  21054839.25028  16417738.63367  20603147.338    20603146.584    20603149.283  
      1479.873        1153.148          53.000          46.000  
  23911741.76928  18634554.50167  20273480.231    20273478.592    20273484.207  
      -509.411        -396.944          52.000          46.000  
  27223519.69727  21208989.41667  22239008.081    22239007.127    22239013.347  
     -2505.682       -1952.479          45.000          42.000  
  19101337.84627  14892734.67567  22554352.041    22554351.102    22554357.064  
      2937.867        2289.247          47.000          42.000  
  18451658.13127  14384000.26566  22725842.854    22725842.013    22725845.251  
      3336.967        2600.234          44.000          39.000  
  -4097374.33626  -3179674.80365  24304130.031    24304129.051    24304133.253  
      2279.643        1776.345          41.000          35.000  
  27387232.28628  21335571.96467  21622985.248    21622984.286    21622989.775  
     -2601.070       -2026.808          51.000          46.000  
 19  4  7 18 47 30.0000000  0 11G01G23G18G16G07G08G09G30G11G28G27
  -1597951.74526  -1189807.25465  24703215.679    24703214.508    24703224.062  
      3660.455        2852.303          38.000          35.000  
  29026064.65526  22609375.84566  23665638.695    23665638.060    23665640.730  
     -3404.332       -2652.726          41.000          37.000  
  -6218897.57727  -4804454.93166  23099592.678    23099592.032    23099597.075  
      3312.427        2581.112          45.000          39.000  
  28205392.17527  21969512.63266  23673837.725    23673836.220    23673839.809  
     -2812.125       -2191.266          44.000          38.000  
  21040056.86428  16406219.89867  20600334.343    20600333.587    20600336.275  
      1476.442        1150.474          53.000          46.000  
  23916861.69628  18638544.05867  20274454.500    20274452.873    20274458.495  
      -514.510        -400.917          52.000          46.000  
  27248592.28427  21228526.48267  22243779.336    22243778.266    22243784.565  
     -2508.717       -1954.844          45.000          42.000  
  19071961.87927  14869844.31467  22548762.004    22548761.004    22548767.005  
      2937.032        2288.596          47.000          42.000  
  18418296.58427  14358004.25866  22719494.374    22719493.529    22719496.729  
      3335.231        2598.881          45.000          40.000  
  -4120172.34026  -3197439.46965  24299791.557    24299790.624    24299794.823  
      2279.915        1776.557          41.000          35.000  
  27413256.78628  21355850.79167  21627937.566    21627936.608    21627942.069  
     -2603.973       -2029.070          51.000          46.000  
 19  4  7 18 47 40.0000000  0 11G01G23G18G16G07G08G09G30G11G28G27
  -1634555.84426  -1218329.86765  24696249.853    24696249.068    24696258.758  
      3660.913        2852.659          39.000          35.000  
  29060119.47226  22635912.05166  23672118.997    23672118.480    23672121.142  
     -3406.026       -2654.046          41.000          37.000  
  -6252005.86427  -4830253.58366  23093292.307    23093291.759    23093296.774  
      3309.508        2578.837          45.000          39.000  
  28233520.75827  21991431.00266  23679190.240    23679188.837    23679192.481  
     -2813.253       -2192.145          43.000          38.000  
  21025320.09128  16394736.69367  20597530.028    20597529.278    20597531.963  
      1471.466        1146.597          53.000          46.000  
  23922040.97728  18642579.86067  20275440.086    20275438.453    20275444.076  
      -520.769        -405.794          52.000          46.000  
  27273705.54127  21248095.23567  22248558.221    22248557.212    22248563.455  
     -2513.288       -1958.406          45.000          42.000  
  19042607.46427  14846970.73967  22543176.011    22543175.053    22543181.034  
      2934.634        2286.728          46.000          42.000  
  18384960.97927  14332028.46166  22713150.901    22713150.057    22713153.189  
      3332.173        2596.498          45.000          40.000  
  -4142960.07326  -3215196.13266  24295455.235    24295454.333    24295458.522  
      2278.111        1775.151          41.000          36.000  
  27439321.03628  21376160.58967  21632897.376    21632896.469    21632901.902  
     -2608.348       -2032.479          51.000          45.000  
 19  4  7 18 47 50.0000000  0 11G01G23G18G16G07G08G09G30G11G28G27
  -1671165.67426  -1246856.95265  24689283.037    24689282.488    24689292.060  
      3661.635        2853.222          40.000          35.000  
  29094184.62326  22662456.30866  23678601.412    23678600.906    23678603.639  
     -3406.668       -2654.546          41.000          37.000  
  -6285091.39127  -4856034.51166  23086996.357    23086995.805    23087000.755  
      3307.774        2577.486          45.000          39.000  
  28261653.24927  22013352.41766  23684543.662    23684542.278    23684545.958  
     -2813.310       -2192.190          44.000          38.000  
  21010628.96428  16383289.06467  20594734.389    20594733.651    20594736.344  
      1467.238        1143.302          53.000          46.000  
  23927279.67028  18646661.95867  20276436.937    20276435.331    20276440.967  
      -526.842        -410.526          52.000          46.000  
  27298859.34327  21267695.60467  22253344.932    22253343.847    22253350.011  
     -2516.907       -1961.226          45.000          42.000  
  19013274.69427  14824114.04967  22537594.113    22537593.194    22537599.151  
      2932.387        2284.977          46.000          42.000  
  18351651.25527  14306072.85566  22706812.120    22706811.332    22706814.539  
      3329.938        2594.757          44.000          39.000  
  -4165737.57526  -3232944.83766  24291120.714    24291119.870    24291124.059  
      2277.690        1774.823          40.000          36.000  
  27465424.90128  21396501.26467  21637864.794    21637863.874    21637869.310  
     -2612.101       -2035.403          51.000          45.000  
 19  4  7 18 48  0.0000000  0 11G01G23G18G16G07G08G09G30G11G28G27
  -1707780.44826  -1275387.89565  24682315.678    24682315.168    24682324.381  
      3662.145        2853.619          40.000          35.000  
  29128260.82826  22689009.17466  23685086.038    23685085.306    23685088.204  
     -3408.188       -2655.731          41.000          37.000  
  -6318153.22627  -4881796.95766  23080704.796    23080704.350    23080709.290  
      3305.149        2575.441          45.000          39.000  
  28289790.42327  22035277.47366  23689897.988    23689896.509    23689900.261  
     -2813.942       -2192.682          43.000          38.000  
  20995984.36828  16371877.69667  20591947.579    20591946.867    20591949.561  
      1462.355        1139.497          53.000          46.000  
  23932578.61128  18650790.99967  20277445.298    20277443.706    20277449.322  
      -532.600        -415.013          52.000          46.000  
  27324054.40427  21287328.10667  22258139.309    22258138.273    22258144.529  
     -2521.549       -1964.843          45.000          42.000  
  18983964.40727  14801274.87067  22532016.532    22532015.636    22532021.581  
      2930.103        2283.197          46.000          42.000  
  18318368.48427  14280138.23966  22700478.561    22700477.857    22700481.025  
      3327.161        2592.593          45.000          39.000  
  -4188503.98426  -3250684.87066  24286788.314    24286787.533    24286791.752  
      2276.533        1773.922          41.000          36.000  
  27491569.06928  21416873.33767  21642839.812    21642838.938    21642844.358  
     -2616.286       -2038.664          51.000          45.000  
 19  4  7 18 48 10.0000000  0 11G01G23G18G16G07G08G09G30G11G28G27
  -1744409.29126  -1303929.84265  24675345.794    24675345.145    24675353.939  
      3663.182        2854.428          39.000          34.000  
  29162338.73226  22715563.35966  23691570.877    23691570.113    23691573.209  
     -3408.313       -2655.828          41.000          37.000  
  -6351200.41127  -4907547.99166  23074416.224    23074415.716    23074420.622  
      3303.331        2574.024          45.000          39.000  
  28317922.90827  22057198.86166  23695251.460    23695249.981    23695253.747  
     -2813.755       -2192.536          44.000          38.000  
  20981377.20928  16360495.48967  20589167.966    20589167.210    20589169.905  
      1458.209        1136.267          53.000          46.000  
  23937928.30028  18654959.59167  20278463.302    20278461.705    20278467.340  
      -538.029        -419.243          52.000          46.000  
  27349281.31027  21306985.41667  22262939.863    22262938.843    22262945.072  
     -2525.317       -1967.779          45.000          42.000  
  18954667.42227  14778446.05767  22526441.480    22526440.600    22526446.547  
      2928.498        2281.946          46.000          42.000  
  18285103.43127  14254217.42066  22694148.507    22694147.678    22694150.844  
      3324.992        2590.903          45.000          40.000  
  -4211268.64826  -3268423.54366  24282456.258    24282455.553    24282459.711  
      2275.530        1773.140          41.000          36.000  
  27517744.17028  21437269.51267  21647820.777    21647819.922    21647825.291  
     -2619.592       -2041.241          51.000          45.000  
 19  4  7 18 48 20.0000000  0 11G01G23G18G16G07G08G09G30G11G28G27
  -1781039.08226  -1332472.54765  24668375.224    24668374.797    24668383.537  
      3663.676        2854.812          36.000          33.000  
  29196431.19026  22742128.89066  23698058.521    23698057.617    23698060.851  
     -3408.633       -2656.078          41.000          37.000  
  -6384219.88927  -4933277.44666  23068132.860    23068132.332    23068137.143  
      3301.421        2572.536          45.000          39.000  
  28346063.74127  22079126.78066  23700606.603    23700605.047    23700608.753  
     -2813.758       -2192.539          43.000          38.000  
  20966820.49028  16349152.59767  20586397.910    20586397.147    20586399.855  
      1453.956        1132.953          53.000          46.000  
  23943341.75728  18659177.87067  20279493.462    20279491.845    20279497.471  
      -543.616        -423.597          53.000          46.000  
  27374552.96627  21326677.60266  22267748.808    22267747.900    22267754.087  
     -2528.556       -1970.303          45.000          41.000  
  18925396.84127  14755637.82267  22520871.552    22520870.600    22520876.531  
      2926.554        2280.432          47.000          42.000  
  18251869.17627  14228320.61066  22687824.294    22687823.423    22687826.566  
      3322.737        2589.146          45.000          40.000  
  -4234018.49426  -3286150.67866  24278127.157    24278126.415    24278130.463  
      2275.223        1772.901          41.000          36.000  
  27543963.12628  21457699.86567  21652810.144    21652809.207    21652814.585  
     -2623.284       -2044.117          51.000          45.000  
 19  4  7 18 48 30.0000000  0 11G01G23G18G16G07G08G09G30G11G28G27
  -1817672.86126  -1361018.28465  24661403.730    24661403.244    24661412.300  
      3663.995        2855.061          37.000          33.000  
  29230534.99027  22768703.26666  23704548.169    23704547.367    23704550.595  
     -3410.267       -2657.351          42.000          37.000  
  -6417214.50627  -4958987.53866  23061854.258    23061853.628    23061858.413  
      3298.629        2570.360          45.000          39.000  
  28374209.92527  22101058.84166  23705962.593    23705960.985    23705964.786  
     -2814.471       -2193.094          43.000          38.000  
  20952311.22728  16337846.67467  20583636.905    20583636.143    20583638.812  
      1449.122        1129.186          53.000          46.000  
  23948816.10228  18663443.59667  20280535.198    20280533.576    20280539.215  
      -549.961        -428.541          52.000          46.000  
  27399866.24027  21346402.22966  22272565.868    22272564.915    22272571.010  
     -2532.875       -1973.669          45.000          41.000  
  18896149.67627  14732847.82167  22515306.016    22515305.077    22515310.944  
      2923.979        2278.425          46.000          42.000  
  18218662.75127  14202445.47666  22681505.336    22681504.471    22681507.538  
      3319.843        2586.891          45.000          40.000  
  -4256756.69026  -3303868.73265  24273800.237    24273799.402    24273803.371  
      2273.639        1771.667          41.000          35.000  
  27570222.78328  21478161.93867  21657807.154    21657806.259    21657811.640  
     -2627.423       -2047.343          51.000          45.000  
 19  4  7 18 48 40.0000000  0 11G01G23G18G16G07G08G09G30G11G28G27
  -1854315.66526  -1389571.03665  24654430.675    24654430.139    24654439.089  
      3663.696        2854.828          37.000          33.000  
  29264644.71827  22795282.25466  23711039.053    23711038.247    23711041.436  
     -3412.166       -2658.831          42.000          37.000  
  -6450189.67727  -4984682.45366  23055579.262    23055578.560    23055583.440  
      3295.722        2568.095          44.000          39.000  
  28402356.07227  22122990.89566  23711318.608    23711317.118    23711320.754  
     -2815.430       -2193.842          44.000          38.000  
  20937844.12628  16326573.61167  20580883.927    20580883.149    20580885.806  
      1443.912        1125.126          53.000          46.000  
  23954345.76228  18667752.42067  20281587.444    20281585.841    20281591.463  
      -556.477        -433.618          52.000          46.000  
  27425215.67927  21366155.02866  22277389.694    22277388.752    22277394.904  
     -2537.478       -1977.256          45.000          41.000  
  18866920.70927  14710072.00067  22509743.960    22509743.001    22509748.836  
      2921.325        2276.357          46.000          42.000  
  18185478.99727  14176588.01966  22675190.658    22675189.787    22675192.855  
      3316.780        2584.504          45.000          40.000  
  -4279488.54226  -3321581.85065  24269474.576    24269473.679    24269477.719  
      2272.321        1770.640          41.000          35.000  
  27596517.74728  21498651.50867  21662810.921    21662810.037    21662815.390  
     -2631.991       -2050.902          51.000          45.000  
 19  4  7 18 48 50.0000000  0 11G01G23G18G16G07G08G09G30G11G28G27
  -1890961.71926  -1418126.41365  24647457.200    24647456.724    24647465.475  
      3664.803        2855.691          38.000          34.000  
  29298766.07427  22821870.32366  23717532.142    23717531.337    23717534.472  
     -3412.707       -2659.252          42.000          37.000  
  -6483139.25927  -5010357.43266  23049309.080    23049308.422    23049313.354  
      3293.767        2566.572          44.000          39.000  
  28430507.84327  22144927.34166  23716675.781    23716674.313    23716677.795  
     -2815.527       -2193.917          44.000          37.000  
  20923424.96428  16315337.90167  20578140.038    20578139.273    20578141.919  
      1439.616        1121.779          53.000          46.000  
  23959936.22128  18672108.62067  20282651.271    20282649.663    20282655.286  
      -562.128        -438.022          53.000          46.000  
  27450606.84027  21385940.32666  22282221.492    22282220.591    22282226.693  
     -2541.380       -1980.296          45.000          41.000  
  18837715.64827  14687314.82067  22504186.410    22504185.447    22504191.276  
      2919.127        2274.644          47.000          42.000  
  18152323.69027  14150752.72666  22668881.422    22668880.505    22668883.629  
      3314.186        2582.483          45.000          40.000  
  -4302208.38226  -3339285.59065  24265151.239    24265150.083    24265154.218  
      2271.469        1769.976          39.000          35.000  
  27622853.51428  21519172.88867  21667822.458    21667821.555    21667826.909  
     -2635.718       -2053.806          51.000          45.000  
 19  4  7 18 49  0.0000000  0 11G01G23G18G16G07G08G09G30G11G28G27
  -1927614.51926  -1446687.03965  24640482.467    24640481.968    24640490.534  
      3665.227        2856.021          37.000          34.000  
  29332895.36526  22848464.55666  23724026.809    23724025.920    23724029.130  
     -3413.082       -2659.544          41.000          37.000  
  -6516066.88527  -5036015.30966  23043043.134    23043042.444    23043047.437  
      3291.852        2565.079          44.000          39.000  
  28458661.62427  22166865.34966  23722033.345    23722031.721    23722035.248  
     -2815.410       -2193.826          43.000          37.000  
  20909050.35928  16304136.90567  20575404.602    20575403.854    20575406.534  
      1435.437        1118.522          53.000          46.000  
  23965584.26228  18676509.69067  20283726.074    20283724.461    20283730.065  
      -567.500        -442.208          52.000          46.000  
  27476036.13527  21405755.36866  22287060.564    22287059.638    22287065.709  
     -2544.690       -1982.875          46.000          41.000  
  18808531.15327  14664573.66467  22498632.780    22498631.810    22498637.644  
      2917.616        2273.467          47.000          42.000  
  18119193.44027  14124936.95866  22662576.941    22662576.029    22662579.156  
      3311.875        2580.682          45.000          40.000  
  -4324919.69526  -3356982.66065  24260829.343    24260828.162    24260832.493  
      2271.043        1769.644          40.000          35.000  
  27649226.57828  21539723.32167  21672841.074    21672840.191    21672845.526  
     -2639.042       -2056.396          51.000          45.000  
 19  4  7 18 49 10.0000000  0 11G01G23G18G16G07G08G09G30G11G28G27
  -1964272.36126  -1475251.55865  24633506.776    24633506.250    24633514.677  
      3666.522        2857.030          38.000          34.000  
  29367034.13726  22875066.16366  23730523.232    23730522.204    23730525.541  
     -3413.827       -2660.125          40.000          37.000  
  -6548970.70927  -5061654.64366  23036781.776    23036781.037    23036786.064  
      3289.823        2563.498          45.000          39.000  
  28486819.01627  22188806.16766  23727391.434    23727389.878    23727393.489  
     -2815.476       -2193.877          42.000          37.000  
  20894721.99328  16292971.94767  20572677.992    20572677.264    20572679.908  
      1430.878        1114.970          53.000          46.000  
  23971291.23228  18680956.68467  20284812.075    20284810.450    20284816.055  
      -573.267        -446.702          52.000          46.000  
  27501505.09327  21425601.29766  22291907.069    22291906.166    22291912.328  
     -2548.671       -1985.977          44.000          41.000  
  18779368.84527  14641849.79067  22493083.371    22493082.409    22493088.204  
      2915.579        2271.880          47.000          42.000  
  18086089.94427  14099142.03266  22656277.522    22656276.664    22656279.732  
      3309.239        2578.628          45.000          40.000  
  -4347620.85026  -3374671.85265  24256509.330    24256508.204    24256512.630  
      2269.944        1768.788          40.000          35.000  
  27675638.37628  21560303.93867  21677867.034    21677866.178    21677871.510  
     -2642.866       -2059.376          51.000          45.000  
 19  4  7 18 49 20.0000000  0 11G01G23G18G16G07G08G09G30G11G28G27
  -2000937.63626  -1503821.84465  24626529.508    24626528.845    24626537.486  
      3667.117        2857.494          36.000          34.000  
  29401179.59926  22901672.98266  23737020.815    23737019.866    23737023.131  
     -3414.818       -2660.897          41.000          37.000  
  -6581853.35527  -5087277.47466  23030524.409    23030523.648    23030528.652  
      3287.188        2561.445          44.000          39.000  
  28514977.44727  22210747.77166  23732749.925    23732748.201    23732751.909  
     -2815.900       -2194.208          43.000          37.000  
  20880437.38828  16281841.08667  20569959.742    20569958.981    20569961.632  
      1426.251        1111.364          53.000          46.000  
  23977054.46128  18685447.51267  20285908.788    20285907.171    20285912.758  
      -579.147        -451.283          52.000          46.000  
  27527010.96627  21445475.97966  22296760.731    22296759.816    22296765.940  
     -2552.712       -1989.126          45.000          41.000  
  18750226.28427  14619141.29367  22487537.795    22487536.784    22487542.541  
      2913.271        2270.081          47.000          42.000  
  18053010.81527  14073366.09066  22649982.774    22649981.880    22649984.983  
      3306.661        2576.619          45.000          40.000  
  -4370314.43926  -3392355.17165  24252190.767    24252189.607    24252194.149  
      2268.481        1767.648          41.000          35.000  
  27702086.27728  21580912.69067  21682899.930    21682899.054    21682904.364  
     -2646.810       -2062.449          52.000          45.000  
 19  4  7 18 49 30.0000000  0 11G01G23G18G16G07G08G09G30G11G28G27
  -2037606.33726  -1532394.80665  24619551.753    24619551.178    24619559.742  
      3666.403        2856.937          38.000          34.000  
  29435335.57626  22928288.00266  23743520.508    23743519.643    23743522.860  
     -3416.418       -2662.144          41.000          37.000  
  -6614710.65627  -5112880.55366  23024271.893    23024271.095    23024276.083  
      3284.279        2559.178          43.000          39.000  
  28543140.78927  22232693.22966  23738109.218    23738107.548    23738111.148  
     -2816.779       -2194.893          43.000          37.000  
  20866200.51728  16270747.42367  20567250.569    20567249.787    20567252.431  
      1421.034        1107.299          53.000          46.000  
  23982877.80328  18689985.18167  20287016.908    20287015.313    20287020.912  
      -585.506        -456.238          52.000          46.000  
  27552557.58927  21465382.43166  22301622.097    22301621.182    22301627.276  
     -2556.792       -1992.305          45.000          41.000  
  18721107.40227  14596451.28267  22481996.602    22481995.632    22482001.441  
      2910.461        2267.892          47.000          42.000  
  18019959.96227  14047612.19466  22643693.395    22643692.479    22643695.595  
      3303.455        2574.121          46.000          40.000  
  -4392996.63826  -3410029.64865  24247874.491    24247873.301    24247877.778  
      2267.305        1766.731          40.000          35.000  
  27728574.04328  21601552.50667  21687940.436    21687939.511    21687944.816  
     -2650.878       -2065.619          51.000          45.000  
 19  4  7 18 49 40.0000000  0 11G01G23G18G16G07G08G09G30G11G28G27
  -2074279.81026  -1560971.54065  24612573.301    24612572.375    24612580.926  
      3668.022        2858.199          38.000          34.000  
  29469500.56727  22954910.02866  23750022.103    23750021.068    23750024.268  
     -3416.830       -2662.465          43.000          38.000  
  -6647543.83927  -5138464.83466  23018023.931    23018023.177    23018028.120  
      3282.508        2557.798          45.000          39.000  
  28571307.76627  22254641.52666  23743469.128    23743467.588    23743471.212  
     -2816.382       -2194.583          43.000          37.000  
  20852010.10928  16259689.96667  20564550.177    20564549.437    20564552.075  
      1417.100        1104.234          53.000          46.000  
  23988759.98828  18694568.70167  20288136.262    20288134.654    20288140.237  
      -590.760        -460.332          52.000          46.000  
  27578143.47527  21485319.47966  22306490.961    22306490.020    22306496.120  
     -2560.217       -1994.974          45.000          41.000  
  18692010.93727  14573778.71367  22476459.713    22476458.720    22476464.557  
      2908.912        2266.685          47.000          42.000  
  17986936.10727  14021879.32866  22637409.206    22637408.281    22637411.393  
      3301.295        2572.438          45.000          40.000  
  -4415668.85526  -3427696.28665  24243560.025    24243558.937    24243563.537  
      2267.286        1766.716          41.000          35.000  
  27755100.22728  21622222.25667  21692988.182    21692987.268    21692992.561  
     -2654.155       -2068.173          51.000          45.000  
 19  4  7 18 49 50.0000000  0 11G01G23G18G16G07G08G09G30G11G28G27
  -2110961.22826  -1589554.43765  24605593.167    24605592.046    24605600.686  
      3667.974        2858.162          38.000          34.000  
  29503671.11227  22981536.40766  23756524.688    23756523.550    23756526.641  
     -3417.970       -2663.353          43.000          38.000  
  -6680356.14227  -5164032.85166  23011780.039    23011779.174    23011784.093  
      3279.677        2555.592          45.000          39.000  
  28599474.92927  22276589.94166  23748829.237    23748827.565    23748831.290  
     -2817.183       -2195.208          43.000          37.000  
  20837862.89528  16248666.15767  20561858.056    20561857.294    20561859.940  
      1412.020        1100.275          53.000          46.000  
  23994697.62928  18699195.43767  20289266.194    20289264.556    20289270.129  
      -597.053        -465.236          52.000          46.000  
  27603765.17727  21505284.42166  22311366.649    22311365.699    22311371.791  
     -2564.574       -1998.369          45.000          41.000  
  18662933.63827  14551121.07667  22470926.477    22470925.520    22470931.327  
      2906.152        2264.534          47.000          42.000  
  17953936.02927  13996164.98966  22631129.556    22631128.596    22631131.719  
      3298.442        2570.215          45.000          40.000  
  -4438334.32726  -3445357.65965  24239247.069    24239245.964    24239250.307  
      2265.606        1765.407          41.000          35.000  
  27781661.39428  21642919.26767  21698042.587    21698041.687    21698046.990  
     -2658.437       -2071.509          51.000          45.000  
 19  4  7 18 50  0.0000000  0 11G01G23G18G16G07G08G09G30G11G28G27
  -2147644.67125  -1618138.88765  24598612.376    24598611.287    24598619.871  
      3668.631        2858.674          34.000          34.000  
  29537852.99727  23008171.64066  23763029.280    23763028.280    23763031.303  
     -3418.391       -2663.681          43.000          38.000  
  -6713141.58827  -5189579.94866  23005541.147    23005540.267    23005545.203  
      3277.047        2553.543          45.000          39.000  
  28627648.09927  22298543.04366  23754190.428    23754188.823    23754192.414  
     -2817.566       -2195.506          44.000          37.000  
  20823764.71828  16237680.56867  20559175.317    20559174.492    20559177.146  
      1407.414        1096.686          53.000          46.000  
  24000696.38828  18703869.79767  20290407.697    20290406.086    20290411.655  
      -602.821        -469.731          52.000          46.000  
  27629428.37227  21525281.71666  22316250.212    22316249.230    22316255.315  
     -2568.085       -2001.105          45.000          41.000  
  18633881.35227  14528482.94867  22465397.963    22465397.018    22465402.888  
      2904.070        2262.912          47.000          42.000  
  17920965.74827  13970473.86966  22624855.390    22624854.528    22624857.677  
      3295.262        2567.737          45.000          40.000  
  -4460987.25326  -3463009.26866  24234936.419    24234935.245    24234939.506  
      2264.445        1764.503          40.000          36.000  
  27808263.24528  21663647.97167  21703104.768    21703103.844    21703109.160  
     -2662.111       -2074.372          51.000          45.000  
 19  4  7 18 50 10.0000000  0 11G01G23G18G16G07G08G09G30G11G28G27
  -2184334.20926  -1646728.09665  24591630.347    24591629.634    24591638.185  
      3669.550        2859.390          36.000          34.000  
  29572041.89227  23034812.32466  23769535.122    23769534.177    23769537.270  
     -3418.918       -2664.092          43.000          38.000  
  -6745904.38927  -5215109.39166  22999306.535    22999305.670    22999310.630  
      3274.840        2551.823          44.000          39.000  
  28655823.08527  22320497.58766  23759551.959    23759550.380    23759553.827  
     -2817.486       -2195.444          43.000          37.000  
  20809711.43128  16226729.94567  20556501.054    20556500.234    20556502.879  
      1403.029        1093.269          53.000          46.000  
  24006752.00528  18708588.46167  20291560.015    20291558.407    20291563.993  
      -608.680        -474.296          52.000          46.000  
  27655128.79527  21545308.00366  22321140.888    22321139.883    22321145.951  
     -2571.994       -2004.151          45.000          41.000  
  18604849.98427  14505861.11467  22459873.398    22459872.514    22459878.375  
      2901.727        2261.086          47.000          42.000  
  17888021.05227  13944802.68666  22618586.206    22618585.346    22618588.503  
      3293.060        2566.021          46.000          40.000  
  -4483631.87326  -3480654.41766  24230627.304    24230626.152    24230630.411  
      2264.086        1764.223          40.000          36.000  
  27834901.47228  21684405.03467  21708173.794    21708172.926    21708178.253  
     -2665.856       -2077.290          50.000          45.000  
 19  4  7 18 50 20.0000000  0 11G01G23G18G16G07G08G09G30G11G28G27
  -2221029.47125  -1675321.77565  24584647.680    24584646.845    24584655.200  
      3668.318        2858.430          35.000          34.000  
  29606237.90027  23061458.52866  23776042.523    23776041.557    23776044.540  
     -3420.677       -2665.463          43.000          38.000  
  -6778644.13427  -5240620.86266  22993076.319    22993075.494    22993080.552  
      3272.113        2549.698          44.000          39.000  
  28684000.09727  22342453.68366  23764913.832    23764912.288    23764915.773  
     -2818.474       -2196.214          43.000          37.000  
  20795703.28928  16215814.51867  20553835.365    20553834.551    20553837.220  
      1398.030        1089.374          53.000          46.000  
  24012864.56828  18713351.49067  20292723.213    20292721.590    20292727.165  
      -614.781        -479.050          52.000          46.000  
  27680866.51727  21565363.36366  22326038.618    22326037.556    22326043.694  
     -2576.451       -2007.624          45.000          41.000  
  18575839.85927  14483255.81867  22454352.965    22454352.066    22454357.933  
      2899.510        2259.358          47.000          42.000  
  17855102.30227  13919151.71466  22612322.003    22612321.086    22612324.257  
      3289.907        2563.564          45.000          40.000  
  -4506267.94226  -3498292.89166  24226319.665    24226318.646    24226322.990  
      2262.307        1762.837          41.000          36.000  
  27861576.20528  21705190.53367  21713249.784    21713248.964    21713254.268  
     -2669.833       -2080.389          51.000          45.000  
 19  4  7 18 50 30.0000000  0 11G01G23G18G16G07G08G09G30G11G28G27
  -2257726.52226  -1703916.79065  24577664.332    24577663.216    24577671.949  
      3670.198        2859.895          36.000          35.000  
  29640444.89727  23088113.30166  23782552.008    23782551.007    23782553.878  
     -3420.381       -2665.232          43.000          37.000  
  -6811356.54427  -5266111.04066  22986851.374    22986850.518    22986855.516  
      3270.680        2548.582          43.000          39.000  
  28712183.12627  22364414.46566  23770276.963    23770275.396    23770278.854  
     -2818.039       -2195.874          44.000          37.000  
  20781744.52128  16204937.55767  20551179.063    20551178.280    20551180.943  
      1394.257        1086.434          52.000          46.000  
  24019038.22728  18718162.13167  20293898.017    20293896.387    20293901.962  
      -619.405        -482.653          52.000          46.000  
  27706645.49827  21585450.86166  22330944.178    22330943.156    22330949.295  
     -2579.107       -2009.694          45.000          41.000  
  18546855.09327  14460670.29067  22448837.355    22448836.430    22448842.286  
      2898.166        2258.311          46.000          42.000  
  17822213.59327  13893524.16266  22606063.541    22606062.577    22606065.765  
      3288.218        2562.248          45.000          40.000  
  -4528891.38826  -3515921.53266  24222014.540    24222013.550    24222017.876  
      2262.692        1763.137          40.000          36.000  
  27888291.38528  21726007.55767  21718333.536    21718332.664    21718338.011  
     -2672.793       -2082.696          50.000          45.000  
 19  4  7 18 50 40.0000000  0 11G01G23G18G16G07G08G09G30G11G28G27
  -2294431.80535  -1732518.21975  24570679.044    24570678.104    24570687.035  
      3670.563        2860.179          35.000          35.000  
  29674656.07927  23114771.34366  23789062.171    23789061.226    23789064.032  
     -3421.800       -2666.338          42.000          38.000  
  -6844048.32827  -5291585.14666  22980630.390    22980629.525    22980634.536  
      3267.770        2546.314          44.000          39.000  
  28740365.43827  22386374.69866  23775639.955    23775638.362    23775641.780  
     -2818.683       -2196.376          44.000          37.000  
  20767828.47028  16194093.88067  20548530.885    20548530.122    20548532.809  
      1389.070        1082.392          53.000          46.000  
  24025265.96628  18723014.92067  20295083.100    20295081.472    20295087.078  
      -625.856        -487.680          52.000          46.000  
  27732458.84127  21605565.15766  22335856.294    22335855.266    22335861.351  
     -2583.561       -2013.164          45.000          41.000  
  18517889.03127  14438099.33967  22443325.293    22443324.379    22443330.228  
      2895.306        2256.083          47.000          42.000  
  17789348.23027  13867914.80566  22599809.391    22599808.456    22599811.702  
      3284.959        2559.708          45.000          40.000  
  -4551508.91326  -3533545.55866  24217710.570    24217709.551    24217714.079  
      2260.840        1761.694          41.000          36.000  
  27915040.17928  21746850.76667  21723423.681    21723422.809    21723428.165  
     -2677.176       -2086.111          51.000          45.000  
